street,city,country,longitude,latitude
1001 13th St S,Virginia,US,-92.55,47.51
"7000 NE Airport Way, MB#3",Portland,US,-122.59,45.59
235-251 Bourke St,Melbourne,AU,144.97,-37.81
King Abdullah Rd,RIYADH,SA,47.27,24.13
120 Hawley Ln,Trumbull,US,-73.15,41.23
3450 Marron Rd,Oceanside,US,-117.3,33.18
9998 Commons St.,Lone Tree,US,-104.88,39.54
黄浦区,上海市,CN,121.48,31.2
"1119-1 sanghyun-dong, suji- gu",Gyeonggi-do,KR,127.49,37.18
1 Sunvalley Mall,Concord,US,-122.06,37.97
126 Broadway,Hillsdale,US,-74.04,41
3540 Mt. Diablo Blvd.,Lafayette,US,-122.12,37.89
641 N 8th St,Richmond,US,-77.43,37.54
1109 Yelm Ave E,Yelm,US,-122.59,46.93
2200 Norview Ave.,Norfolk,US,-76.22,36.9
Nelson St,Manchester,GB,-2.23,53.46
14 Rue Interieure,Paris,FR,2.33,48.88
虹口区,上海市,CN,121.48,31.26
12469 Rancho Bernardo Road,San Diego,US,-117.06,33.02
Av. Lopez Mateos Sur S/N,Guadalajara,MX,-103.39,20.67
191,서울,KR,126.96,37.56
5550 Lafayette,Indianapolis,US,-86.26,39.85
1190 Alameda Avenue,Burbank,US,-118.31,34.16
505-A Grand Avenue,Walnut,US,-117.84,34.03
13401 Blue Heron Beach Dr.,Orlando,US,-81.5,28.37
160 Wharfside Street,Birmingham,GB,-1.91,52.48
1920 S Nevada Ave,Colorado Springs,US,-104.82,38.81
"The Mall Ngamwongwan, No. 30/39-50",Bangkhen,TH,100.54,13.86
2511 Anthem Village Dr,Henderson,US,-115.1,35.98
Europa-Allee 6,FRANKFURT AM MAIN,DE,8.65,50.11
6750 Ayala Avenue,Makati City,PH,121.03,14.55
10401 N Michigan Rd,Carmel,US,-86.23,39.94
245 East 80th St,New York,US,-73.95,40.77
江东区,宁波市,CN,121.57,29.88
820 Woodside Road,Redwood City,US,-122.22,37.47
9329 Whittier Blvd,Pico Rivera,US,-118.08,34
1241 Elgin Mills Road East,Richmond Hill,CA,-79.4,43.9
龙岗区,深圳市,CN,114.25,22.72
"333-1 Wolgae3dong, Nowongu, Seoul",Seoul,KR,127.06,37.63
12330 Crabapple  Rd,Alpharetta,US,-84.36,34.08
8-2 Yamanouchi-ikejiricho Ukyo-ku,Kyoto,JP,135.72,35
966 Old Mill Run,The Villages,US,-81.97,28.91
上海市,上海市,CN,121.49,31.4
BISMARCKALLEE 5,FREIBURG,DE,7.84,48
"Ziyou Rd.,&Zhongshan Rd",Pingtung County,TW,120.49,22.67
1414 Golf Road,Rolling Meadows,US,-88,42.05
9990 Avenida Vista Hermosa,San Clemente,US,-117.6,33.46
1-3-1 Otemachi,Chiyoda-ku,JP,139.76,35.69
3605 El Camino Real,Santa Clara,US,-122,37.35
6471-90 Almaden Expressway,San Jose,US,-121.86,37.22
"155-9, Sachang-dong, Heungdeok-gu",Chungcheongbuk-do,KR,127.46,36.63
607 E. Main Street,Ventura,US,-119.29,34.28
Estrada do Caminho Municipal 1011,Almada,PT,-9.16,38.66
شارع غانم الحريص,مدينة الكويت,KW,48.08,29.3
3300 Bee Caves Rd,Austin,US,-97.8,30.28
"Shop No.101, 1st Floor, Liberte Place, 8",Hong Kong,CN,114.15,22.33
"8, Jalan Bukit Pantai",Kuala Lumpur,MY,101.67,3.12
1011 Baldwin Park Blvd.,Baldwin Park,US,-117.99,34.06
840 E Hobson Way,Blythe,US,-114.59,33.61
195 Placerville Road,Folsom,US,-121.11,38.65
3-2-1 Mikagenakamachi Higashinadaku,Kobe,JP,135.26,34.72
4609 S Timberline Rd,Fort Collins,US,-105.04,40.52
"Stockport Station, Station Road",Stockport,GB,-2.16,53.4
台江区,福州市,CN,119.3,26.06
GRUNERSTRASSE 20,BERLIN,DE,13.42,52.52
5000 Arizona Mills Circle,Tempe,US,-111.96,33.38
Jalan Melawai,Jakarta,ID,106.48,-6.14
4507 Flamingo Rd,Las Vegas,US,-115.2,36.12
普陀区,上海市,CN,121.43,31.24
265 Wharncliffe Rd North,London,CA,-81.26,42.99
Bath Road,Reading,GB,-1.06,51.44
465 INVESTORS PLACE,Virginia Beach,US,-76.13,36.83
2771 Monument Road,Jacksonville,US,-81.5,30.36
4600 International Gateway,Columbus,US,-82.89,40
江苏省南京市,南京市,CN,118.79,31.99
500 Centre Street,Calgary,CA,-114.06,51.05
5963 Corson Avenue South,Seattle,US,-122.32,47.55
16199 Boones Ferry Rd.,Lake Oswego,US,-122.72,45.41
6850 NE Bothell Way,Kenmore,US,-122.25,47.76
12921 SW 1st Road,Newberry,US,-82.48,29.66
859 N. Highland Avenue,Los Angeles,US,-118.34,34.09
512 East Alto Rd.,Kokomo,US,-86.13,40.44
7700 Maple Street,New Orleans,US,-90.13,29.94
鄞州区,宁波市,CN,121.57,29.83
吴兴区,湖州市,CN,120.1,30.87
14444 W. CENTER RD.,OMAHA,US,-96.14,41.23
"1455 K St., NW",Washington,US,-77.03,38.9
"4F, No.1, Sec. 1, Chengde Rd.",Taipei City,TW,121.52,25.05
"Shop B, Ground Floor",Hong Kong,CN,114.16,22.29
10800 West Pico Blvd.,Los Angeles,US,-118.43,34.04
350 E 40th Ave,Eugene,US,-123.09,44.01
400 Ridgeville Blvd.,Mount Airy,US,-77.16,39.36
111 east ocean Boulevard,Long Beach,US,-118.19,33.77
"JL Zainul Arifin, Medan Baru",Medan,ID,98.67,3.58
1240 Railway Avenue,Canmore,CA,-115.36,51.09
130 Fulton Street,New York,US,-74.01,40.71
Jalan Letnan Kolonel Iskandar,Palembang,ID,104.76,-2.98
"573-7, Bujeon-Dong, Busanjin-Gu",Busan,KR,129.06,35.16
Av. Tabancura 1185,Santiago,CL,-70.54,-33.38
66 Gerrard Street East,Toronto,CA,-79.38,43.66
"469-1, Naedang-dong, Seo-gu",Daegu,KR,128.56,35.86
"No. 72, Sec. 3, Kang-Ning Rd",Taipei City,TW,121.61,25.07
Aéroport de Luxembourg lux-airport,Luxembourg-Findel,LU,6.21,49.63
"100, Persiaran Bayan Indah",Bayan Lepas,MY,100.31,5.33
2-17-5 Yamadahigashi,Suita,JP,135.53,34.8
武昌区,武汉市,CN,114.3,30.53
1-26-2 Nishishinjuku,Shinjuku-ku,JP,139.7,35.69
6 Raffles Boulevard,Singapore,SG,103.86,1.29
"Office Lobby, G/F Exchange Square",Hong Kong,CN,114.16,22.28
1-3-16 Taiko Nakamura-ku,Nagoya,JP,136.88,35.17
1-50 Miyamachi,Fuchu,JP,139.48,35.67
Semsettin Gunaltay Cad. NO.108,Istanbul,TR,29.09,40.97
高新区,成都市,CN,104.07,30.55
Jean Jaures 1015,Buenos Aires,AR,-58.41,-34.6
737 Broadway Avenue,Saskatoon,CA,-106.66,52.12
"Av. Kennedy 9001, Local 3225",Santiago,CL,-70.55,-33.39
425 Simcoe Street,Victoria,CA,-123.38,48.42
"653-1, Gwangsa-dong",Yangju-si,KR,127.08,37.79
2201 Dundas Street West,Toronto,CA,-79.45,43.65
396 - 11th Avenue SW,Calgary,CA,-114.07,51.04
37-39 St. John's Road,London,GB,-0.17,51.46
7450 120 St,Surrey,CA,-122.89,49.14
路南区,唐山市,CN,118.18,39.63
324 8th Avenue SW,Calgary,CA,-114.07,51.05
Paseo de la Castellana 70,Madrid,ES,-3.69,40.44
435 Stone Road W,Guelph,CA,-80.24,43.52
961 James Mowatt Tr,Edmonton,CA,-113.51,53.42
松江区,上海市,CN,121.2,31.02
1 Sennichimae Chuo-ku,Osaka,JP,135.5,34.67
"No.14, Shaochuan St.",Kaohsiung City,TW,120.27,22.62
"Brailsford Way, Chilwell",Nottingham,GB,-1.24,52.9
龙岗区,深圳市,CN,114.24,22.72
5685 Falls Ave,Niagara Falls,CA,-79.07,43.09
"Rue de la Loi, Rond-point Robert Schuman",Brussels,BE,4.38,50.84
上海浦东,上海市,CN,121.81,31.15
"19-1, Songdo-dong, Yeonsu-gu",Incheon,KR,126.64,37.4
4900 Molly Banister Drive,Red Deer,CA,-113.81,52.24
栖霞区,南京市,CN,118.89,32.05
"4, 4/1 & 4/2, Shop A305, 3rd Fl Zone A",Pathumwan,TH,100.54,13.75
125 Davie Street,Vancouver,CA,-123.12,49.27
1721 Columbia Ave,Castlegar,CA,-117.66,49.3
Unit 4,Cambridge,GB,0.12,52.21
Tsarigradsko Blvd,Sofia,BG,23.43,42.64
Ekinanbari Koyu Bodrum Milas Havalimani,Mugla,TR,27.66,37.25
Liberty Shopping Centre,Romford,GB,0.18,51.58
1-1 Suehirocho,Kashiwa,JP,139.97,35.86
6700 Fallsview Blvd,Niagara Falls,CA,-79.08,43.08
丰台区,北京市,CN,116.32,39.9
卢湾区,上海市,CN,121.46,31.22
"Shop 5, Brixton Underground Station",London,GB,-0.11,51.46
998-27 Negoya,Numazu,JP,138.81,35.15
"No. 2, Fusing Rd., Fongyuan Dist.",Taichung City,TW,120.72,24.25
"432,  Waegwan-eup, Chilgok-gun",Seokjeon,KR,128.67,35.89
Mohamed V International Airport,Casablanca,MA,-7.58,33.37
1601 Bayshore Dr,Vancouver,CA,-123.13,49.29
"1767 Jung-dong, Haeundae-gu",Busan,KR,129.17,35.17
靖江中路122号,临海市,CN,121.14,28.85
Timura Frunze St 11,Moscow,RU,37.59,55.73
5251 Dundas Street West,Toronto,CA,-79.54,43.64
海淀区,北京市,CN,116.32,39.97
Universite Caddesi Yorulmaz Sokak,Tepebasi,TR,30.51,39.79
3 Temasek Boulevard,Singapore,SG,103.86,1.29
TBD,RIYADH,SA,46.62,24.68
"Svobody street, 46a",Yaroslavl,RU,39.87,57.63
昆都仑区,包头市,CN,109.82,40.66
道里区,哈尔滨,CN,126.62,45.77
1 King's College Circle,Toronto,CA,-79.4,43.66
5-1-1 Kameido,Koto-ku,JP,139.83,35.7
Autopista General Canas,Alajuela,CR,-84.12,9.6
"468 Seongnae-dong,Gangdong-gu",Seoul,KR,127.13,37.53
郑州市,郑州市,CN,113.67,34.76
"1339-1, Sangyeok-dong, Buk-gu",Daegu,KR,128.61,35.89
"888 Outlet Village Korat,",Pakchong,TH,101.39,14.66
Václavské náměstí 57,Praha,CZ,14.43,50.08
975 Boul. Romeo Vachon,Dorval,CA,-73.75,45.46
2100 Market Street SE,Airdrie,CA,-113.99,51.27
Al Salam Street,Abu Dhabi,AE,54.38,24.48
"Shop 2077, Upper Level, Waterfall City",Midrand,ZA,28.11,-26.02
"632-3, Hyoja-dong",Choonchun,KR,127.75,37.87
江苏省南京市,南京市,CN,118.73,31.99
2-19-12 Takashima Nishi-ku,Yokohama,JP,139.63,35.46
59-7 서울극장 1층,서울,KR,126.99,37.57
"Sec. 3, Chongde Road",Taichung City,TW,120.7,24.18
5-33-8 Shiba,Minato-ku,JP,139.75,35.65
1-20-6 Mizuho,Sakata,JP,139.85,38.9
"JL. Jend Sudriman No. 1, Klandasan Ilir",Balikpapan,ID,116.82,-1.22
"No.6, Aly. 142, Ln. 250, Nanxiang Rd.",Nantou City,TW,120.71,23.9
68 High Street,Staines,GB,-1.48,52.92
229-1,서울,KR,127.05,37.48
崇明县,上海市,CN,121.4,31.62
1-1-3 Nishishinjuku,Shinjuku-ku,JP,139.7,35.69
Jl. Alam Sutera Boulevar Tangerang,Jakarta,ID,106.88,-6.15
浦东新区,上海市,CN,121.6,31.21
A120 Thermal Lane,London,GB,0.25,51.88
Yongdamro,Incheon,KR,126.68,37.42
Verkhnaya Krasnosel'skaya street 3A,Moscow,RU,37.67,55.78
椒江区,台州市,CN,121.43,28.65
"Upper Ground Floor, Century Bhavan",Mumbai,IN,72.82,19.01
"Khaldiya Area, Abu Dhabi Island",Abu Dhabi,AE,54.54,24.51
2-9-13 Tatsuminishi,Okazaki,JP,137.17,34.94
4-2-1 Shiroshita,Hachinohe,JP,141.49,40.52
Landside,Luton,GB,-0.38,51.88
4-18-8 Nerima,Nerima-ku,JP,139.65,35.74
8671 # Road,Richmond,CA,-123.18,49.15
Acibadem Mah Bagimsiz Bolum AnkaraDevlet,Istanbul,TR,29.05,41
广州市越秀区,广州市,CN,113.28,23.14
青浦区,上海市,CN,121.23,31.15
"No. 20, Jhongjheng Road",Taoyuan City,TW,121.31,24.99
Calle Morelli 279,Lima,PE,-77.03,-12.06
苏州市工业园区星湖街,苏州市,CN,120.73,31.26
"Bath Spa Station, Platform 1",Bath,GB,-2.36,51.38
3-2-24 Toyosu,Koto-ku,JP,139.79,35.66
8888 University Drive,Burnaby,CA,-122.92,49.28
"812-2, Mia-dong",Seoul,KR,127.02,37.62
"B2  No.313, Sec. 1, Nangang Rd.",Taipei City,TW,121.61,25.05
2-13-1 Narimasu,Itabashi-ku,JP,139.63,35.78
44-5 Doduri,Pyeongtaek,KR,127.01,36.96
1895 Cornwall Ave,Vancouver,CA,-123.15,49.27
175,서울,KR,127.08,37.51
"No.7, Sec.2, Xianmin Blvd",New Taipei City,TW,121.46,25.01
"No.118, Sec. 5, Jiaoxi Rd.",Yilan County,TW,121.77,24.83
Wallasey Water front retail park,Wallasey,GB,-3.05,53.44
工业园区嘉瑞巷18号,苏州市,CN,120.72,31.32
450 1st Street SW,Calgary,CA,-114.07,51.05
Gazi Mustafa Kemal Bulv. Kizilay,Ankara,TR,32.85,39.92
2-1-10 Akasaka,Narita,JP,140.29,35.78
Limmatstrasse 5,Zurich,CH,8.54,47.38
"6 Hillview Rise , #01-05",Singapore,SG,103.76,1.36
Tol Cipularang - Jakarta KM 97,Bandung,ID,107.44,-6.67
ul.Ostrobramska 75 c,Warszawa,PL,21.11,52.23
Grand Boulevard BSD City,Banten,ID,106.16,-6.04
历下区,济南市,CN,117.01,36.65
"E-G-15 & E-A-15, Ground Floor",Kuala Lumpur,MY,101.7,3.15
Bryom Street,Liverpool,GB,-2.98,53.41
Av. Tamaulipas No. 3000,Mexico City,MX,-99.28,19.36
金阊区,苏州市,CN,120.6,31.31
250 Queen Street West,Toronto,CA,-79.39,43.65
"Central Had Yai, Karnjanavanit Road",Songkhla,TH,100.48,6.99
3-3-20 Umeda Kita-ku,Osaka,JP,135.49,34.7
"6 Of Octobe, El Horya Square",Cairo,EG,31.35,30.13
7-2-5 Miyashita-dori,Asahikawa,JP,142.36,43.76
"19-1 대한극장 1,2층",서울,KR,127,37.56
2-14-1 Kamikuzuhara Kokuraminami-ku,Kiatakyusyu,JP,130.91,33.84
"Unit 2, The Green Strand Street",Malahide,IE,-6.15,53.45
1-14-13 Matsushima,Naha,JP,127.7,26.22
4-6-1 Sakae Naka-ku,Nagoya,JP,136.91,35.17
1-3-1 Minamisaiwai Nishi-ku,Yokohama,JP,139.62,35.47
Northgate,Darlington,GB,-1.55,54.53
"14-4 Yangjae-dong, Seocho-gu",Seoul,KR,127.04,37.48
19-21 High Street,Pinner,GB,-0.39,51.58
"No. 201, Sec. 4, Zhongxiao E Rd.",Taipei City,TW,121.55,25.04
4520 Albert Street,Regina,CA,-104.62,50.41
730-742 George Street,Sydney,AU,151.21,-33.88
"639-7, Shinsa-Dong, Gangnam-Gu",Seoul,KR,127.04,37.53
125 Riocan Ave,Ottawa,CA,-75.74,45.27
801 6 Street SW,Calgary,CA,-114.08,51.05
2020 Sherwood Drive,Edmonton,CA,-113.29,53.53
5-374-3 Kitano 6-jo Kiyota-ku,Sapporo,JP,141.45,43.02
工业园区唯华路5号-5号楼101室,苏州市,CN,120.69,31.36
2-2-8 Chuo,Ebina,JP,139.39,35.45
Shipai Road,Taipei City,TW,121.48,25.06
1126/1 New Petchburi Rd,Bangkok,TH,100.55,13.75
35 Shinanomachi,Shinjuku-ku,JP,139.72,35.68
南明区,贵阳,CN,106.72,26.58
Avenue Mariano Escobedo y Lago Alberto,Mexico City,MX,-99.19,19.44
江东区,宁波市,CN,121.59,29.87
朝阳区朝阳公园路6号,北京市,CN,116.47,39.95
Maure 1818,Buenos Aires,AR,-58.44,-34.57
Westfield Garden City,Upper Mt Gravatt,AU,153.09,-27.54
新浦区,连云港,CN,119.19,34.6
Lote 0001 Mza F Blvd Agua Caliente 10387,Tijuana,MX,-117.01,32.51
Buyukdere Cad. Metrocity Alisveris,Istanbul,TR,29.01,41.08
65 Queen Street West,Toronto,CA,-79.38,43.65
市南区,青岛市,CN,120.38,36.06
吴中区,苏州市,CN,120.55,31.26
2-40 Tomisuharacho,Yokkaichi,JP,136.66,35.01
"115 Daesin-Dong, Seodaemun-Gu",Seoul,KR,126.95,37.57
"400-1 Sinpyeong-dong, 1F",Gyeongsangbuk-do,KR,129.17,35.5
"Shop S10-12, Luk Yeung Galleria, 2/F",N.T.,CN,114.12,22.37
"Av. Victor Raúl Haya de la Torre 4522,",Chimbote,PE,-77.05,-12.09
黄浦区,上海市,CN,121.48,31.23
朝阳区,北京市,CN,116.45,39.97
"CC Jockey Plaza, Javier Prado Oeste 4200",Lima,PE,-76.97,-12.09
牡丹江路318号,上海市,CN,121.5,31.38
浙江省温州市,温州市,CN,120.64,28.04
锦江区,成都市,CN,104.06,30.65
1139 9th Avenue SE,Calgary,CA,-114.04,51.04
2 RUE DE I'ECHELLE,PARIS,FR,2.33,48.86
"Rua Maestro Cardim, 769",Sao Paulo,BR,-46.64,-23.57
"Jl. Prof Dr. Satrio Kav 3,5 Akret",Jakarta,ID,106.82,-6.22
5-8-13 Daizawa,Setagaya-ku,JP,139.67,35.66
1550 University Drive W,Lethbridge,CA,-112.89,49.69
97-4 Garak-dong Songpa-gu,Seoul,KR,127.12,37.49
"No. 52, Sec. 1, Nanjing E. Rd, Zhongshan",Taipei City,TW,121.53,25.05
杨浦区,上海市,CN,121.51,31.26
28 Kita 8-jo  Nishi 14-chome Chuo-ku,Sapporo,JP,141.33,43.07
Neubaugasse 4,Wien,AT,16.35,48.2
闽江东路9号星光天地购物中心1楼06单元,苏州市,CN,120.77,31.67
Weston Avenue,West Thurrock,GB,0.27,51.49
Jumeirah,Dubai,AE,55.23,25.17
Col. Las Compuertas Del Campestre,Celaya,MX,-100.78,20.53
"902-13, Ssangchon-dong, Seo-gu",Gwangju,KR,126.86,35.14
"Avenida Santa Fe 1997, esquina Ayacucho",Buenos Aires,AR,-58.4,-34.6
Ave. Roosevelt 525 Local 126,San Juan,PR,-66.07,18.42
"Open Space, OS3, 2/F, Yuen Long Plaza,",Yuen Long,CN,114.02,22.44
47-49 Great Darkgate Street,Ceredigion,GB,-4.09,52.41
1-3-2 Yurinokidori Okubocho,Akashi,JP,134.94,34.68
"Av. Americo Vespucio 1501, Local BA-104",Santiago,CL,-70.72,-33.52
Osmaniye Mah. Acibadem Cad.,Istanbul,TR,29.04,41
"No.350, Sec.2, Songzhu Rd.",Taichung City,TW,120.68,24.19
"1/3, Sivadon Building",Bangluck,TH,100.53,13.73
4030 Montrose Road,Niagara Falls,CA,-79.12,43.11
10355 - 152nd St.,Surrey,CA,-122.8,49.19
盱城镇金源北路12号,淮安市,CN,118.52,33
8330 82nd Avenue NW,Edmonton,CA,-113.46,53.52
272 Soi Chula 22,Bangkok,TH,100.52,13.74
Grand Place de Bruxelles 4,Brussels,BE,4.36,50.84
"No.202, Shuntian Rd",Taichung City,TW,120.62,24.35
Blvd. Juan Alonso de Torres #2002,Leon,MX,-101.7,21.15
"Reel Cinema, Dubai Mall, Second Floor",Dubai,AE,55.6,24.78
Honduras 5550 Ciudad de Buenos Aires,Buenos Aires,AR,-58.44,-34.58
4-15-1 Honcho,Toda,JP,139.68,35.81
3737 Major Mackenzie Drive,Vaughan,CA,-79.56,43.84
Unit 1 Crawley Leisure Park,Crawley,GB,-0.18,51.12
3359 Mississauga Rd N,Mississauga,CA,-79.66,43.55
150 Jean-Talon East,Montreal,CA,-73.62,45.54
720 Granville St,Vancouver,CA,-123.12,49.28
"No.11, Baoan St.",Taipei City,TW,121.51,25.06
2-1 Senribanpakukoen,Suita,JP,135.54,34.81
城厢区,莆田市,CN,119,25.42
3-10 Takadamacho Izumi-ku,Sendai,JP,140.89,38.32
浙江省宁波市,宁波市,CN,121.55,29.87
3664 Highway 16,Smithers,CA,-127.19,54.82
"Av.43 Oriente #5, Col Huexotitla",Puebla,MX,-98.21,19.03
"Torre Real Once, Centro Empresarial,",Lima,PE,-77.04,-12.1
4900 27th Street,Vernon,CA,-119.27,50.28
"Nicaragua 6045, CABA",Buenos Aires,AR,-58.44,-34.58
"535A CLEMENTI ROAD,blk C,C01-04",Singapore,SG,103.78,1.33
沌口经济开发区,武汉市,CN,114.16,30.51
"Av. Cabildo 3500, esq. Juana Azurduy",Buenos Aires,AR,-58.47,-34.55
上海市浦东新区,上海市,CN,121.52,31.23
Majidiye,Beirut,LB,35.51,33.9
上海市浦东新区,上海市,CN,121.56,31.21
上海市黄浦区,上海市,CN,121.47,31.21
Av Pedro Sainz de Barranda s/n  esq.,CAMPECHE,MX,-90.52,19.86
朝阳区,北京市,CN,116.46,39.93
Ahmet Yesevi Mh. Sanayi Cd.,Bursa,TR,28.95,40.27
Subnade 1 Kabukicho,Shinjuku-ku,JP,139.7,35.69
Galerie marchande de la Grande Arche,Puteaux,FR,2.24,48.89
2008-1 Shimokasuya,Isehara,JP,139.32,35.41
"1407 U-dong, Haeundae-gu",Busan,KR,129.14,35.16
1610 Ness Avenue,Winnipeg,CA,-97.21,49.88
"No. 2, Yude Road",Taichung City,TW,120.74,24.26
2-3 Sakuragicho Omiya-ku,330-9501,JP,139.62,35.91
G/F The 30th Mall,Pasig City,PH,121.06,14.57
"No.83, Chaofu Rd.",Taichung City,TW,120.64,24.17
666-2 Nitonacho Chuo-ku,Chiba,JP,140.16,35.58
"1, Q House Lumpini Building",Sathorn,TH,100.54,13.73
"8 Marta street, 46",Yekaterinburg,RU,60.6,56.83
海港区,秦皇岛,CN,119.58,39.95
1-100 Hachibancho Koshien,Nishinomiya,JP,135.36,34.72
江苏省苏州昆山市,昆山市,CN,120.98,31.4
湖里区,厦门市,CN,118.13,24.53
SCS-Strasse,Vosendorf,AT,16.32,48.11
"No. 112, Sec. 1, Nankan Road",Lujhu Township,TW,121.29,25.05
11660-11688 Steveston Hwy,Richmond,CA,-123.09,49.13
Jalan Pantai Kuta Br Pande Mas,Denpasar,ID,115.17,-8.72
37 Symonds Street Unit G01,Auckland,NZ,174.77,-36.85
Zhongshan N. Rd.,Kaohsiung City,TW,120.3,22.79
"Presnenskaya nab., 2",Moscow,RU,37.54,55.75
金山区,上海市,CN,121.32,30.84
2-394 Okuwa,Kanazawa,JP,136.68,36.53
和平区,沈阳市,CN,123.43,41.78
748 정우빌딩 1층,대전,KR,127.39,36.35
"Krylatsakaya street, 17/3",Moscow,RU,37.42,55.77
长安镇农发区,海宁市,CN,120.38,30.34
"Venizelou Street & Minoos Street, Crete",Heraklion,GR,25.12,35.34
"No. 181, Sec. 2, Changrong Road",Tainan City,TW,120.22,22.99
江宁区,南京市,CN,119.05,32.03
302 Tiong Buhru Road,Singapore,SG,103.83,1.29
Bahnhofsplatz 1,Mainz,DE,8.26,50
2-3-1 Kichijojihoncho,Musashino,JP,139.58,35.71
Carracci n. 3 esq. Av. Patriotismo,Mexico DF,MX,-99.18,19.41
Quirino Highway,Quezon City,PH,121.06,14.74
Calle 69 A No. 5 - 08,BOGOTA DC,CO,-74.06,4.65
295 Western Bank,Sheffield,GB,-1.49,53.38
شارع سالم صباح السالم الصباح,مدينة الكويت,KW,48.14,29.12
浦东新区,上海市,CN,121.56,31.23
"Michoacan #139, esq. Cuautla",Mexico City,MX,-99.17,19.41
Gursel Mah. Atiye Sok. No:1,Istanbul,TR,28.98,41.07
Aztec West,Almondsbury,GB,-2.57,51.54
"Manas Bulvari Adalet Mahallesi 4007 ada,",Izmir,TR,27.18,38.45
金水区,郑州市,CN,113.71,34.76
"616-5, 6 Samjeong-dong",Gimhae-si,KR,128.53,35.13
"88 High Road, Ilford",Ilford,GB,0.07,51.56
2-1-1 Tenjin Chuo-ku,Fukuoka,JP,130.4,33.59
"246-6, Sawoodong, Gimpos",Gimpo,KR,126.43,37.37
Melchor Ocampo n.453 Col. Anzures,MEXICO,MX,-99.18,19.42
Mesaimeer Road,Abu Hamour,QA,51.5,25.23
"Asiatown IT Park, Lahug",Cebu City,PH,123.91,10.33
مخرج 9-طريق الدائرى الشرقى,الرياض,SA,46.73,24.78
Unit RU11 Bouviere Place,Folkestone,GB,1.18,51.08
姑苏区,苏州市,CN,120.6,31.26
Blvd. Culiacan No. 450,Culiacan,MX,-107.41,24.8
"Whinfell Forest, Sports Plaza",Penrith,GB,-2.74,54.6
柳南区,柳州,CN,109.39,24.29
"Av. Guilherme Campos, 500",Campinas,BR,-47.06,-22.85
Pedro Teixeira 8,Madrid,ES,-3.69,40.46
Traversgatan 12,Vasteras,SE,16.46,59.62
鄞州区,宁波市,CN,121.55,29.8
Jl. Kemang Raya 12,Jakarta,ID,106.81,-6.26
长宁区福泉北路388号,上海市,CN,121.36,31.23
"Calle 30 n. 185, Col. San Ramon Norte",Merida,MX,-89.62,21.04
188-1 Ekimaecho,Himeji,JP,134.69,34.83
"47-7 Myungil-dong,Gangdong-gu",Seoul,KR,127.16,37.55
"M4 Motorway, Junction 14/15",Hungerford,GB,-1.56,51.48
Suvari Caddesi No: 45/A ?zmir,Izmir,TR,27.21,38.46
Zhangjian Avenue&Nanhai Road,Nantong,CN,121.17,31.88
Westfield Chartwell Shopping Centre,Hamilton,NZ,175.28,-37.76
"354-1, Sinbu-dong, dongnam-gu",Cheonan,KR,127.16,36.82
"44 Soi Sukhumvit 71,Ramkhamhaeng rd.",Bangkok,TH,100.6,13.74
Genova 27,Madrid,ES,-3.69,40.43
上海市闵行区,上海市,CN,121.31,31.2
52-7 Kawasakicho Chuo-ku,Chiba,JP,140.12,35.59
珠江新城华利路46-52号,广州市,CN,113.32,23.12
Ramintra Road,Bangkok,TH,100.63,13.86
"Rua Marques de Sao Vicente, 52, 1o piso",Rio de Janeiro,BR,-43.23,-22.98
1000 San Juan Blvd. Space #127A,San Juan,PR,-66.01,18.4
2-5-1 Shin-yokohama Kohoku-ku,Yokohama,JP,139.62,35.51
"No.115, Jingye 2nd Rd",Taipei City,TW,121.55,25.08
"Shop 247, Level 2, Moko 193 Prince Edward Rd West",Hong Kong,CN,114.17,22.32
雨花区,长沙市,CN,112.99,28.17
1855 Burrard Street,Vancouver,CA,-123.15,49.27
椒江区,台州市,CN,121.41,28.65
31 Dudley Street,Wolverhampton,GB,-2.13,52.58
"A483/A539,  Wrexham Bypass",Wrexham,GB,-3.03,53.03
"G/F, Auditoria Building",Kowloon,CN,114.17,22.29
沙坪坝区,重庆市,CN,106.46,29.56
南山区,深圳市,CN,113.92,22.49
6301 Silver Dart Drive,Mississauga,CA,-79.62,43.68
2-10-1 Osaki,Shinagawa-ku,JP,139.73,35.62
"Super Avenida Lomas Verdes 1200, Fracc.",Mexico City,MX,-99.27,19.51
秦淮区,南京市,CN,118.79,32.01
3-2-5 Kojimachi,Chiyoda-ku,JP,139.74,35.68
Motorway Services Area M6,Corley,GB,-1.55,52.47
Paz 44,Valencia,ES,-0.38,39.48
5000 Highway #7 East,Markham,CA,-79.29,43.87
宝山区,上海市,CN,121.45,31.34
54 스페이스본 109-110호,서울,KR,126.97,37.58
黄浦区,上海市,CN,121.47,31.23
"No 23, Sec 2, Sanmin Rd, Banqiao Dist",New Taipei City,TW,121.48,25.02
1355 Kingston Road W. P.O. Box 48;,Pickering,CA,-79.09,43.84
Istiklal Cad. NO 18,Istanbul,TR,28.98,41.04
浙江省台州市,台州市,CN,121.44,28.67
281-4 Jinraku,Yamatotakada,JP,135.74,34.53
"402-56 Sipjeong-Dong, Bupyeong-Gu",Incheon,KR,126.7,37.47
"Yas Island, Abu Dhabi",Abu Dhabi,AE,54.47,24.41
UP North Retail Science Tech Center,Quezon City,PH,121.06,14.66
3636 Brentwood Rd NW,Calgary,CA,-114.12,51.09
"No.186, Fuxing Rd.",Taoyuan City,TW,121.31,25.02
"Crytal Design Center, Room No.Z2.143",Bangkapi,TH,100.62,13.8
青浦区,上海市,CN,121.13,31.15
Jl. Medan Merdeka Timur,Jakarta,ID,106.83,-6.18
徐汇区,上海市,CN,121.44,31.19
402 Orchard Road,Singapore,SG,103.83,1.31
2-1-1 Kamimeguro,Meguro-ku,JP,139.7,35.64
23 Helmcken Rd.,Victoria,CA,-123.43,48.47
شارع سالم المبارك,مدينة الكويت,KW,48.08,29.34
"Lebuh Bandar Utama, Bandar Utama",Petaling Jaya,MY,101.61,3.14
A. Demetriade No 1 St,Timisoara,RO,21.22,45.75
36B High Street,Brentwood,GB,0.3,51.62
1-3 Hess Andras str.,Budapest,HU,19.03,47.5
Seochangnamsunhwanro,Incheon,KR,126.75,37.42
Alkotás út 53,Budapest,HU,19.02,47.49
721-1 Shichijo-sagaru Karasuma-dori,Kyoto,JP,135.76,34.99
鼓楼区,南京市,CN,118.77,32.05
"1F, No.123, Gaotie Rd.",Kaohsiung City,TW,120.31,22.69
高新区天府一街699号,成都市,CN,104.05,30.56
"958, Gwanpyeong-dong, Yuseong-gu",DaejeonDaejeon,KR,127.39,36.43
樊城区,襄樊市,CN,112.15,32.04
天河区,广州市,CN,113.34,23.12
Plaza Sotomayor 212,Valparaiso,CL,-71.63,-33.04
"Av. Washington Luis, s/n, Sagua Central",Sao Paulo,BR,-46.66,-23.63
"Av. Paulista, 2.064",Sao Paulo,BR,-46.66,-23.56
海沧区,厦门市,CN,118.03,24.48
Terminal One,Manchester,GB,-2.28,53.37
"Shin-Tokyo International Airport,",Narita,JP,140.39,35.77
Kosuyolu Cad. Direkli Carsi Sok. No:1,Istanbul,TR,29.04,41.01
"14 Norte 880, Local 7, Boulevard Marina",Vina del Mar,CL,-71.55,-33.01
Yeni Mah. Ogretmenler Bulv. M1 Merkez,Adana,TR,35.24,37.02
3-2-43 Saifu,Dazaifu,JP,130.53,33.52
20159 88th Avenue,Langley,CA,-122.66,49.16
Manila East Rd,Taytay,PH,121.14,14.56
"Roxas Blvd. corner Pedro Gil St., Malate",Manila,PH,120.98,14.57
"589-6,Sirangri",Busan,KR,129.21,35.18
50 Stone Rd E,Guelph,CA,-80.23,43.53
WASHINGTONSTR. 7763,Wiesbaden,DE,8.27,50.07
"Bignalls Corner, South Mimms",Potters Bar,GB,-0.22,51.69
"1105, Hyomok-dong",Daegu,KR,128.65,35.88
4122 Dawson Street,Burnaby,CA,-123.01,49.26
"88, Camp Davis",Bangkok,TH,100.57,13.72
65 First Street,Collingwood,CA,-80.22,44.5
福田区,深圳市,CN,114.09,22.54
西城区,北京市,CN,116.36,39.92
El Corte Ingles Gaia. Porto,Vila Nova de Gaia Porto,PT,-8.61,41.13
1-1-1 Sugita Isogo-ku,Yokohama,JP,139.62,35.39
Handelskai 94-96,Wien,AT,16.39,48.24
Tomas Morato corner Timog Avenue,Quezon City,PH,121.04,14.63
Team Valley Retail Park,Gateshead,GB,-1.62,54.92
10 Medical Drive #01-40,Singapore,SG,103.78,1.29
"Ashford International Station, Plt 1-2",Ashford,GB,0.88,51.14
浦东新区,上海市,CN,121.8,31.15
62-2 Binmanji,Taga-cho,JP,136.28,35.22
1597.Cad. Bilkent Center No:3 K:Giris,Ankara,TR,32.76,39.88
"Birmingham-Selfridges, Bullring",Birmingham,GB,-1.89,52.48
1 Tomaricho,Yokosuka,JP,139.67,35.29
"Shop NO. 106 1/F, East Point City, No. 8",Hong Kong,CN,114.27,22.32
"772-67,Hwagok 4-dong",Seoul,KR,126.86,37.54
东城区,北京市,CN,116.43,39.91
福田区,深圳市,CN,114.06,22.55
1425 Kingsway Hwy,Sudbury,CA,-80.94,46.51
昌平区,北京市,CN,116.29,40.1
ul.Niepodległości 36,Szczecin,PL,14.55,53.43
2-17-2 Saikochi,Hitachinaka,JP,140.53,36.41
2-25-6 Dogenzaka,Shibuya-ku,JP,139.7,35.66
No. 1 Qingcheng St,Taipei City,TW,121.55,25.06
"Avenida Paulista, 1203",Sao Paulo,BR,-46.65,-23.56
2-11 Nishichaya Minato-ku,Nagoya,JP,136.83,35.1
定海区,舟山市,CN,122.21,29.99
"Charoenkrung Road, Bangrak",Bangkok,TH,100.52,13.72
"Shop G01 on G/F, AIA Tower",Macau,CN,113.54,22.19
上海市浦东新区,上海市,CN,121.67,31.16
黄浦区,上海市,CN,121.48,31.23
"567-43, Sinmae-dong, Suseong-gu",Daegu,KR,128.71,35.84
Sangam Courtyard,New Delhi,IN,77.17,28.57
"1063-14, Gyesan-dong, Gyeyang-gu",Incheon,KR,126.74,37.54
Villa No.3 Corniche Road,Sharjah,AE,55.39,25.35
A3 Northbound,Liphook,GB,-0.82,51.08
Europastrasse 1,Salzburg,AT,13.01,47.82
"G/F, SM East Ortigas Ave.,",Pasig City,PH,121.11,14.59
九二路北侧塔前村段,泉州市,CN,118.62,24.74
"Rockwell Dr & Plaza Dr, Rockwell Center",Makati City,PH,121.04,14.56
"No.438, Ruilong Rd.",Kaohsiung City,TW,120.33,22.61
江苏省南京市,南京市,CN,118.74,32.03
"291-1, Pyeongtaek-dong",Pyeongtaek-si,KR,127.09,36.99
"1603, Gwanyang-dong, Dongan-gu",Anyang-si,KR,126.96,37.39
8 Jalan Suria,Johor Bahru,MY,103.87,1.5
1323 Lonsdale Avenue,North Vancouver,CA,-123.07,49.32
荔湾区,广州市,CN,113.24,23.1
"No.162, Sec.3, Muxin Rd.",Taipei City,TW,121.56,24.98
"53-3, Haan 3-dong",Gwangmyeong-si,KR,126.88,37.46
"90, avenue Victor Hugo",Paris,FR,2.29,48.87
Mesogeion 232 & Ventouri,Athens,GR,23.8,38.01
"279,Wolpyeong 1-dong, Seo-gu",Daejeon,KR,127.22,36.21
江苏省苏州市,苏州市,CN,120.64,31.28
2-2-1 Shinishikawa Aoba-ku,Yokohama,JP,139.56,35.58
中山区,大连市,CN,121.64,38.92
Yoido 17-3,Seoul,KR,126.92,37.53
1 Mostyn Street,Llandudno,GB,-3.82,53.32
SCHADOWSTRASSE 11,DUESSELDORF,DE,6.78,51.23
河北区新纬路1 号,天津市,CN,117.21,39.14
余杭区,杭州市,CN,120.05,30.25
Domestic Departure,New Delhi,IN,77.12,28.56
St. Paul's Church Yard,London,GB,-0.1,51.51
C. Miguel Aleman Km 24,Monterrey,MX,-100.18,25.78
900 Maple Ave.,Burlington,CA,-79.82,43.33
"861-6, Bongcheon-dong, Gwanak-gu",Seoul,KR,126.95,37.48
1060-10 Namhyeon-dong Gwanak-gu,Seoul,KR,126.98,37.48
武进区,常州市,CN,119.94,31.73
Jl. M H Thamrin No. 10,Jakarta,ID,106.82,-6.2
台江区,福州市,CN,119.29,26.06
闵行区,上海市,CN,121.4,31.01
2000 Airport Rd NE,Calgary,CA,-114.01,51.13
Metro Centre,Newcastle,GB,-1.67,54.96
9737 MacLeod Trl SW,Calgary,CA,-114.07,50.97
市南区,青岛市,CN,120.4,36.07
Shrewsbury Services,Shrewsbury,GB,-2.76,52.68
高新区,成都市,CN,104.04,30.55
Bagdat Cd. Noter Sk. 18/1,Istanbul,TR,29.08,40.97
"4/F,  Uptown Mall",Taguig City,PH,121.05,14.56
"Unit26/6&unit26/7 Ground Floor Lobby,",Bangkhorlaem,TH,100.51,13.71
6815 Kateri Drive,Grande Prairie,CA,-118.8,55.14
"Airport Rd, King Khalid Airport",RIYADH,SA,46.66,24.67
浦东新区,上海市,CN,121.53,31.22
1432-71,서울,KR,126.93,37.49
1180 Taylor Avenue,Winnipeg,CA,-97.17,49.85
5304-1 Takeo Takeocho,Takeo,JP,130.02,33.19
"84-5, Hak-dong",Yeosu,KR,127.67,34.76
254 Donomaecho Rokkakudori Nakagyo-ku,Kyoto,JP,135.76,35.01
3302 Woodroffe Avenue,Ottawa,CA,-75.72,45.28
"Abaya ave, 109",Almaty,KZ,76.91,43.24
虹口区,上海市,CN,121.51,31.25
7020 4th Street NW,Calgary,CA,-114.07,51.12
浦东新区,上海市,CN,121.61,31.19
松山湖高新技术产业开发区,东莞市,CN,113.89,22.93
11-1 Befucho-Asahimachi,Kakogawa,JP,134.85,34.73
"Jl. MH Thamrin, Lippo Cikarang",Bekasi,ID,107.17,-6.28
1151 - 10th Avenue SW,Salmon Arm,CA,-119.3,50.69
"No.2, Sec. 1, Beiyi Rd.",New Taipei City,TW,121.54,24.96
718-1 Nishiyajimacho,Ota,JP,139.38,36.27
长宁区,上海市,CN,121.4,31.21
"Belisario Dominguez No. 2, 535 Local-01",Tuxtla Gutierrez,MX,-93.14,16.75
Stationsplein 11,Haarlem,NL,4.64,52.39
下城区,杭州市,CN,120.16,30.27
市中区,济南市,CN,117.01,36.66
110,Muang,TH,99,18.78
"#6 ADB Ave, Mandaluyong",Mandaluyong City,PH,121.06,14.59
KAISERSTRASSE 185,KARLSRUHE,DE,8.4,49.01
"296 Pentoville Road, Regents Corner",London,GB,-0.12,51.53
212 Abbey End,Kenilworth,GB,-1.58,52.34
3958 Shelbourne St,Victoria,CA,-123.33,48.45
1633 Mountain Road,Moncton,CA,-64.84,46.12
Av. Benavides 778,Lima,PE,-77.04,-12.11
Rama 3 rd.,Bangkok,TH,100.5,13.69
钟楼区,常州市,CN,119.95,31.78
11 Patrick Street,Cork City,IE,-8.47,51.9
Phaholyothin Road km56,Phra Nakhon Si Ayutthaya,TH,100.64,14.19
"Chayangkul Road, Kamyai Sub-district",Ubon Ratchathani,TH,104.85,15.26
Nidaugasse 45,Biel,CH,7.25,47.14
Carretera Boca del rio-Anton Lizardo,Veracruz,MX,-96.1,19.09
新北区,常州市,CN,119.98,31.83
3-2-3 Enoki,Musashimurayama,JP,139.39,35.75
7151 Montrose Road Unit F1,Niagara Falls,CA,-79.13,43.07
"سلطنة عمان, ميناء الفهد,مجمع الثروة التجاري, ق: 210, موقع رقم: 005,ب.س 116, مبنى :1022, محل رقم: 3, ستاربكس ثروة",مسقط,OM,58.51,23.62
新市区,保定市,CN,115.47,38.87
3101 Highway #6,Vernon,CA,-119.27,50.26
鄞州区,宁波市,CN,121.55,29.82
东区,中山市,CN,113.4,22.51
"8010 Bathurst Street, Building C, Unit 6",Vaughan,CA,-79.45,43.82
Frida Khalo #194 esq Rufino Tamayo,Monterrey,MX,-100.33,25.65
蓬江区,江门市,CN,113.08,22.62
Silbury Arcade,Milton Keynes,GB,-0.76,52.04
"5 Nonhyeon-Dong, Gangnam-Gu",Seoul,KR,127.02,37.52
1-11-4 Minamikoshigaya,Koshigaya,JP,139.79,35.88
541 Orchard Rd,Singapore,SG,103.83,1.31
"59-8, Nonhyeon 2-dong",Seoul,KR,127.03,37.52
467-17 타워팰리스Ⅱ F 지하1층,서울,KR,127.05,37.49
Jose Abad Santos Ave.,Angeles City,PH,120.53,15.18
"Ground Floor, Mansion 1",Penang,MY,100.33,5.42
2-4-18 Honcho,Asaka,JP,139.6,35.8
Moliere # 222 Col. Los Morales,Mexico City,MX,-99.2,19.43
3-401 Hiiragiyamacho,Obu,JP,136.95,35.02
1318-8,서울,KR,127.03,37.5
龙岗区,深圳市,CN,114.21,22.65
"Av. Vinte de Janeiro, s/n - Mezanino",Rio de Janeiro,BR,-43.25,-22.81
Jl. Garnisun Dalam No. 2-3 Semanggi,Jakarta,ID,106.82,-6.23
1500 Rue McGill College,Montreal,CA,-73.57,45.5
186 Earls Court Road,London,GB,-0.19,51.49
Krasnopresnenskaya Nab 18,Moscow,RU,37.62,55.76
河东区,天津市,CN,117.21,39.14
1-5-25 Yotsuya,Shinjuku-ku,JP,139.73,35.69
1016 Eglinton Avenue East,Mississauga,CA,-79.63,43.63
浙江省杭州市,杭州市,CN,120.22,30.21
499 Paul Street,Dieppe,CA,-64.76,46.1
Avenida Cabildo 2020,Buenos Aires,AR,-58.46,-34.56
55-1,부산,KR,129.1,35.14
1 Nishikujo Toriiguchicho Minato-ku,Kyoto,JP,135.76,34.98
Unit LU36,Norwich,GB,1.3,52.63
1-1-1 Chuo Aoba-ku,Sendai,JP,140.88,38.26
"10, rue du Havre",Paris,FR,2.33,48.88
5607 4th Street NW,Calgary,CA,-114.07,51.1
"Ground Floor, Bergamo Mall",Chennai,IN,80.25,13.06
18 Bishamontai Tamukai,Hachinohe,JP,141.51,40.49
1088 Yonge Street,Toronto,CA,-79.39,43.68
虞山镇,常熟市,CN,120.76,31.64
1122 Yamanokami,Chuo,JP,138.51,35.61
28 Jupiter Street corner Astra St,Makati City,PH,121.03,14.56
Jalan Seri Tanjung Pinang Lot 3A-G-15,Penang,MY,100.31,5.46
"No. 134, Sec. 4, Zhongxiao E Rd",Taipei City,TW,121.55,25.04
"Sec. 2,  Shi Men Rd.",Tainan City,TW,120.75,24.27
Václavské náměstí 40,Praha,CZ,14.43,50.08
890 West 25 Avenue,Vancouver,CA,-123.13,49.25
新城区,西安市,CN,108.96,34.27
4025 Yonge Street,Toronto,CA,-79.41,43.74
237-3 Hirai,Hinode-machi,JP,139.28,35.73
POTSDAMER PLATZ 5,BERLIN,DE,13.38,52.51
"Rua Jacy Teixeira Camargo, 940, Terreo",Campinas,BR,-47.08,-22.93
2332 Main Mall,Vancouver,CA,-123.25,49.26
南市区,保定市,CN,115.49,38.86
高新区,成都市,CN,104.07,30.58
闸北区,上海市,CN,121.45,31.24
4-1-1-1 Kotoni Nishi-ku,Sapporo,JP,141.3,43.08
227 Portobello Road,London,GB,-0.21,51.52
JL Gatot Subroto 289,Bandung,ID,107.64,-6.93
Jl. Raya Puri Indah Raya,Jakarta,ID,106.74,-6.18
Cumhuriyet Mah.Nilufer Hatun Cad. No:114,Bursa,TR,28.96,40.22
1100 Ellesmere Road,Toronto,CA,-79.27,43.77
"Victoria Square, UG13",Belfast,GB,-5.93,54.6
虎门镇虎门大道121号豪门饭店一、二层,东莞市,CN,113.68,22.82
2-100-45 Shinyokohama Kohoku-ku,Yokohama,JP,139.62,35.51
C. Guadalajara Chapala Km 17,Guadalajara,MX,-103.29,20.53
CC Levallois So Ouest,Paris,FR,2.3,48.89
Baden Powellweg 1,Willemstad,CW,-68.94,12.11
龙岗区,深圳市,CN,114.07,22.66
"Aurora Blvd., Araneta Center",Quezon City,PH,121.05,14.62
11566-24th Street SE,Calgary,CA,-114,50.95
19 Mapleview Drive,Barrie,CA,-79.69,44.33
Old Elvet,Durham,GB,-1.57,54.78
8111 Ackroyd Road,Richmond,CA,-123.14,49.17
5 Tampines West Avenue 3,Singapore,SG,103.94,1.35
上海市松江区,上海市,CN,121.22,31.03
"475-13, Seogyo-Dong, Mapo-Gu",Seoul,KR,126.91,37.56
326 Elgin Street,Ottawa,CA,-75.69,45.42
Hunat Mah. Sivas Cad. Forum Kayseri GF,Kayseri,TR,35.5,38.72
Sherwood Forest,Nottingham,GB,-1.15,52.94
浦东新区,上海市,CN,121.5,31.18
东城区,北京市,CN,116.42,39.91
Jl. Ir.H. Juanda No. 1,Surabaya,ID,112.73,-7.35
Karasuma-Shiokouji-Sagaru Shimogyo-ku,Kyoto,JP,135.76,34.99
2-2-9 Touyama,Urasoe,JP,127.74,26.25
A. Fundadores # 995,Monterrey,MX,-100.32,25.64
Triumph Road,Nottingham,GB,-1.18,52.95
上海市浦东新区,上海市,CN,121.7,31.18
KM 43 Tol Jakarta Cilegon,Cilegon,ID,106.43,-6.19
95 King Street South,Waterloo,CA,-80.52,43.46
Unit 56,Welwyn Garden City,GB,-0.2,51.8
3-34-2 Tamagawa,Setagaya-ku,JP,139.62,35.62
太平街道万泉东路234号（新天地2-101，2-102，2-201）,温岭市,CN,121.39,28.37
"412-27,28,29 Mangmi-dong, Suyoung-gu, Bu",Busan,KR,129.11,35.18
"A47, Wisbech By-Pass",Wisbech,GB,0.21,52.68
"Pontevia North, Evia, Almanza Dos",Las Pinas City,PH,121.01,14.38
Saint Albans,Chiswell Green,GB,-0.36,51.72
90-102 esplanade du General de Gaulle,Courbevoie,FR,2.24,48.89
6112 50th Street,Leduc,CA,-113.55,53.27
855 Janghangdong Ilsandonggu,Goyang,KR,126.77,37.66
武汉大学大门口,武汉市,CN,114.36,30.53
高新区,成都市,CN,104.06,30.58
1-1-1 Meieki Nakamura-ku,Nagoya,JP,136.88,35.17
"1027, 7th Flr Central Chidlom Dept Store",Patumwan,TH,100.54,13.74
308-1 Hojochohojo,Kasai,JP,134.83,34.93
"585 North Bridge Road,",Singapore,SG,103.86,1.3
159 Great Portland Street,London,GB,-0.14,51.52
2-5 Chuodai,Kasugai,JP,137.05,35.28
Av. Presidente Mazaryk #39,Mexico City,MX,-99.18,19.43
영풍빌딩 영풍문고 내 지하 2층,서울,KR,126.98,37.57
Speke Boulevard,Liverpool,GB,-2.85,53.35
"Presnenskaya nab., 8/1",Moscow,RU,37.54,55.75
140 University Center,Winnipeg,CA,-97.15,49.81
1-1-1 Oi,Shinagawa-ku,JP,139.73,35.61
浦东新区,上海市,CN,121.58,31.26
"4, Rue de Seze",Paris,FR,2.33,48.87
5520 Calgary Trail,Edmonton,CA,-113.5,53.49
"Central Plaza Khonkaen, 99,99/1",Muang,TH,102.83,16.43
Av. Homero & E. Alan Poe,Mexico City,MX,-99.2,19.44
180-1,경상북도,KR,128.72,35.84
SOGO,Taipei City,TW,121.53,25.12
Aeroporto Lisboa T1 Chegadas,Lisboa,PT,-9.13,38.76
天河区,广州市,CN,113.32,23.13
Cheonho-dong,Seoul,KR,127.13,37.54
"No. 32, Bao-Ching Road",Taipei City,TW,121.3,25.01
900 Eglington Avenue West,Toronto,CA,-79.43,43.7
1 Hikarigaoka,Fukushima,JP,140.47,37.69
朝阳区,北京市,CN,116.49,39.98
"853-3, 853-25 Manchon-dong",Daegu,KR,128.39,35.51
JL Jend Sudirman Kav 1,Jakarta,ID,106.8,-6.23
中原区,郑州市,CN,113.61,34.76
305-49 노블레스 타워 1층,경상북도,KR,128.42,36.11
朝阳区,北京市,CN,116.45,39.91
600 de Maisonneuve Ouest,Montreal,CA,-73.57,45.5
1-13 Kagurazaka,Shinjuku-ku,JP,139.74,35.7
141 Fujisawacho,Toyohashi,JP,137.37,34.74
Barbaros Mah. Gelincik Sk. No:4,Istanbul,TR,29.36,40.84
"87-26, Yeonhui-dong, Seodaemun-gu",Seoul,KR,126.93,37.57
Muralla St. cor Mag corner,Manila,PH,120.98,14.59
Al Amir Mashal Ibn Abdul Aziz Road,Riyadh,SA,46.61,24.69
AS Fortuna St,Mandaue City,PH,123.92,10.34
惠新东街4号,北京市,CN,116.42,39.99
275 Sec 2 Fuxing S. Road,Taipei City,TW,121.54,25.03
1-10 Kinkomachi Kanagawa-ku,Yokohama,JP,139.63,35.47
1-18-1 Nishigotanda,Shinagawa-ku,JP,139.72,35.62
580 Bute St,Vancouver,CA,-123.12,49.29
Ayala Avenue,Makati City,PH,121.03,14.55
481 River Avenue,Winnipeg,CA,-97.15,49.88
Charles de Gaulle Airport,Roissy-en-France,FR,2.58,49
5395 Queen Mary Road,Montreal,CA,-73.63,45.48
Tugay Yolu Maltepe Carrefour AVM,Istanbul,TR,29.16,40.92
1494 Camelinas Avenue,Morelia,MX,-101.18,19.68
"346-18, Hoegi-dong, Dongdaemun-gu",Seoul,KR,127.06,37.59
777 Guelph Line,Burlington,CA,-79.79,43.35
3-11-10 Minamisenba Chuo-ku,Osaka,JP,135.5,34.68
Rafael E. Melgar  34  Isla Cozumel,COZUMEL,MX,-86.95,20.51
静安区,上海市,CN,121.47,31.23
Yukari Bahcelievler Mah. 7 Cad. No:28/A,Ankara,TR,32.83,39.92
216-2 Ojana,Ginowan,JP,127.73,26.27
雨花区,长沙市,CN,113.04,28.17
4-14-1 Higashisendai Miyagino-ku,Sendai,JP,140.91,38.28
"Unit GF1,Stephens court",Dublin,IE,-6.26,53.34
Stationsplein,Rotterdam,NL,4.47,51.92
"Lot 42, G2, Publika Shopping Gallery",Kuala Lumpur,MY,101.67,3.17
鼓楼区,南京市,CN,118.77,32.07
"No. 101, Zhongshan Road",Nantou City,TW,120.69,23.91
"Unit R:P:490, One Canada Square",London,GB,-0.02,51.5
2-12-8 Tsukiji,Chuo-ku,JP,139.77,35.67
41 - 43 Bedford Hill,London,GB,-0.15,51.44
长宁区,上海市,CN,121.41,31.21
Jl. Mr.A.A.Maramis-Lapangan,Manado,ID,124.92,1.54
"No. 175, Sec. 2, Shin-Hi Road",Taipei City,TW,121.45,25.04
Damascus Road,Chtaura,LB,35.85,33.82
"Shop Nos. 305 and 306, Lee Gardens One",Hong Kong,CN,114.18,22.28
"No 240, Sec 1, Jungshan Rd, Yonghe Dist",New Taipei City,TW,121.51,25.01
"1049-2, Taejeon-dong, Buk-gu, Daegu",Daegu,KR,128.55,35.93
Arne Jacobsen's Alle 12,Copenhagen,DK,12.58,55.63
660 Taunton Road East,Whitby,CA,-78.93,43.92
8118 118th Avenue NW,Edmonton,CA,-113.47,53.57
259 Old Brompton Road,London,GB,-0.19,51.49
4-104 Akanedaira,Ishinomaki,JP,141.27,38.45
1-7-1 Nihonbashimuromachi,Chuo-ku,JP,139.77,35.68
"Upper Ground Floor, MGF Metropolis",Gurgaon,IN,77.08,28.48
38 Walbrook,London,GB,-0.09,51.51
长宁区,上海市,CN,121.36,31.23
渝北区,重庆市,CN,106.5,29.58
"Mubrak Al Kabeer, Block 2",Mubrak Al Kabeer,KW,48.09,29.2
132 Wigmore Street,London,GB,-0.15,51.52
1709 Rue St. Denis,Montreal,CA,-73.57,45.52
1500 벡스코 내,부산,KR,129.14,35.17
1 Bell Blvd Extension,Enfield,CA,-63.54,44.94
Kurtulus Mah. Ziya Pasa Bulv. Ali Sadi,Adana,TR,35.32,37
Jl Jend. Sudirman Kav. 29,Jakarta,ID,106.82,-6.22
701-7 한국기술센터 1층,서울,KR,127.04,37.5
Beirut Street,Pasig City,PH,121.08,14.56
奉贤区航南公路5639号1F-036单元,上海市,CN,121.46,30.93
Lloyd Street,Altrincham,GB,-2.35,53.38
"Blvrd. Kukulkan Km 8.5, Zona Hotelera",Cancun,MX,-86.75,21.14
"Road 30, Messilah",Messilah,KW,48.09,29.27
"Grd Flr Orion Mall, Brigade Gateway",Bangalore,IN,77.56,13.01
江苏省苏州市,苏州市,CN,120.76,31.33
广州至珠海高速公路（西线）顺德碧江,佛山市,CN,113.27,22.92
6740 Fallsview Blvd,Niagara Falls,CA,-79.08,43.08
Kemalettin Mah. Omurtak Street,Tekirdag,TR,36.24,36.81
渝北区,重庆市,CN,106.53,29.63
HEFNERSPLATZ 10,NÜRNBERG,DE,11.07,49.45
高新区,成都市,CN,104.07,30.57
2902 West Broadway,Vancouver,CA,-123.17,49.26
Carretera a Colombia km 5.5,Monterrey,MX,-100.11,25.78
"Arabacialani Mah. Eski Kazim No 10,",Sakarya,TR,30.37,40.78
"Complex No 5, Ibn Al Nadeem St 5",Amman,JO,35.91,31.96
"No.11, Sec 3, Jincheng Rd.",New Taipei City,TW,121.46,24.99
East Coast Mall,Kuantan,MY,103.33,3.82
"2F, No. 1, Zhongzheng Rd.",Taoyuan City,TW,121.3,25.04
157 Gumi-dong Bundang-gu,Seongnam,KR,127.11,37.34
瑶海区,合肥市,CN,117.34,31.87
"Shop Nos.P419-420, L4 WTC More",Hong Kong,CN,114.18,22.28
1-1-1 Akabane,Kita-ku,JP,139.72,35.78
1-1 Toyosuna Mihama-ku,Chiba,JP,140.03,35.65
738 마포트라팰리스II,서울,KR,126.96,37.55
655 Burrard Street,Vancouver,CA,-123.12,49.29
晋江,泉州市,CN,118.57,24.8
浙江省温州市,温州市,CN,120.6,27.96
Dubai Airport Rd,Dubai,AE,55.35,25.25
"Sec.3, Chongde Rd.",Taichung City,TW,120.69,24.19
Queen Alia International Airport,Amman,JO,35.59,31.43
普陀区,舟山市,CN,122.37,29.95
4180 Duke of York Blvd,Mississauga,CA,-79.64,43.59
"Cay Yolu 1 Mahallesi, 2846.",Ankara,TR,32.76,39.9
2-17-1 Kitasuna,Koto-ku,JP,139.83,35.68
4-2-2 Lake Town,Koshigaya,JP,139.82,35.88
70 North Court Street,Thunder Bay,CA,-89.22,48.43
新民中路2号,镇江市,CN,119.57,31.99
浙江省金华市,金华市,CN,120.32,29.16
"2 Mitcham Road, Tooting Broadway",London,GB,-0.17,51.43
Neue Potsdamer Str. 2,Berlin,DE,13.37,52.51
395-66 삼성쉐르빌 1층,서울,KR,126.92,37.49
25-32 Saiwaimachi,Omura,JP,129.96,32.9
70-1 Yokamachi,Saga,JP,130.29,33.25
62-35 jangchoongro 1ga,seoul,KR,127.01,37.56
硚口区,武汉市,CN,114.27,30.57
1-1 Wakamatsucho Wakaba-ku,Chiba,JP,140.17,35.64
黄埔大道西666号首层102单元102，,广州市,CN,113.35,23.13
LMM International Airport Local 165-3,Carolina,PR,-66,18.44
249 Queen's Quay West,Toronto,CA,-79.39,43.64
"Av. Corrientes 1702, esq. Rodriguez Pena",Buenos Aires,AR,-58.39,-34.6
Jl. Tol Surabaya - Gempol Km 26,Surabaya,ID,112.69,-7.43
南海区,佛山市,CN,113.16,23.04
朝阳区,长春市,CN,125.32,43.89
"2-21, 2-28 우성타워",서울,KR,126.91,37.52
"Calle 56 A, Numero 465 x 33 A y 35",Merida,MX,-89.62,20.99
Pre-terminal area MCIA,Lapu-Lapu City,PH,123.96,10.32
上海市闵行区,上海市,CN,121.4,31.19
Av. Pedro Miotta Wong Sur Mall,Lima,PE,-76.98,-12.15
Avenue Domingo Diez #1003 Locales 1y2,Cuernavaca,MX,-99.24,18.95
"منطقة استاد خليفة, حياة بلازا",الدوحة,QA,51.44,25.26
SM Fairview Annex Bldg.,Quezon City,PH,121.06,14.73
27 rue de la République,Lyon,FR,4.84,45.76
301 - 3630 Brentwood Rd. NW,Calgary,CA,-114.13,51.09
Gipsy Lane,Oxford,GB,-1.23,51.76
"2, Yangpyeongdong 4-ga",Seoul,KR,126.9,37.53
33-35 High Street,Whitton,GB,-0.36,51.45
Orlyplein 103,Amsterdam,NL,4.84,52.39
"GF, Forbestown Road",Taguig,PH,121.04,14.55
3-35,부산,KR,129.11,35.15
Jl. S Parman Kav 28,Jakarta,ID,106.79,-6.18
200 Avenue Republique,Nanterre,FR,2.22,48.9
"No.80, Huqian St.",New Taipei city,TW,121.63,25.07
"199-33 Euljiro 2-ga, Jung-gu",Seoul,KR,126.98,37.57
3035 Le Carrefour,Montreal,CA,-73.75,45.57
Av Camilo Henriquez 3296,Santiago,CL,-70.56,-33.57
广陵区,扬州市,CN,119.44,32.39
"2851, Unseo-dong",Incheon,KR,126.45,37.45
闸北区,上海市,CN,121.46,31.25
Blk 25 lot 1-4 Don Juan Ave,Angeles City,PH,120.59,15.15
8/10 rue Norvins,Paris,FR,2.34,48.89
1-21-4 Aoi Higashi-ku,Nagoya,JP,136.92,35.17
Av. Americas # 346,Guadalajara,MX,-103.37,20.68
长宁区,上海市,CN,121.42,31.2
6455 McLeod Trail Southwest,Calgary,CA,-114.07,51
5029 Hurontario Street,Mississauga,CA,-79.65,43.61
The Phoenix Retail Park,Linwood,GB,-4.47,55.85
"Westfield shopping centre, Riccarton Rd",Christchurch,NZ,172.61,-43.53
"Safa Street, Jumeirah 1",Dubai,AE,55.31,25.27
"Jl. Kendal 1 Menteng, Menteng Kota",Jakarta,ID,106.83,-6.2
1-25-1 Chikkoshinmachi Minami-ku,Okayama,JP,133.94,34.6
"Block  3505, Jalan Teknokrat 5",Cyberjaya,MY,101.66,2.92
N Bridgeway corner Orient Lane,Muntinlupa City,PH,121.04,14.42
"1647, Sangam-dong, Mapo-gu",Seoul,KR,126.89,37.58
"175 Bloor Street East, South Building",Toronto,CA,-79.38,43.67
ul.Pawia 5,Kraków,PL,19.95,50.07
1 Harbourfront Walk,Singapore,SG,103.82,1.26
1397-1 Inariyama Yamane,Hidaka,JP,139.32,35.92
Avenida Paseo de la Reforma,Mexico City,MX,-99.17,19.43
"No. 301, Sec. 3, Roosevelt Road",Taipei City,TW,121.53,25.02
"No.2, Jalan Binjai",Kuala Lumpur,MY,101.72,3.16
"50, Raffles Place",Singapore,SG,103.85,1.28
Bahnhof City Wien Hauptbahnhof,Wien,AT,16.38,48.18
"Tunisia Street, Block 3",Hawally,KW,48.02,29.34
Cnr Tyrwhitt and Cradock Avenue,Johannesburg,ZA,28.04,-26.15
1 Toyota-cho,Toyota,JP,137.16,35.06
"No.1, Nanyang St., Zhongzheng Dist.",Taipei City,TW,121.51,25.05
2-2-22 Tanimachi Chuo-ku,Osaka,JP,135.52,34.69
"Shop No. G516, Kin On Mansion",Tai Koo Shing,CN,114.21,22.29
Between Al Amir Mashal Ibn Abdul Aziz Rd,Riyadh,SA,46.62,24.63
"Cineworld Cinemas, Southwater Square",Telford,GB,-2.45,52.67
Carretera Navolato km 4.5,Culiacan,MX,-107.39,24.8
"T-073, Third Floor, Mid Valley Megamall",Kuala Lumpur,MY,103.73,1.47
7 Islington High st,London,GB,-0.11,51.53
Ave Hidalgo 507-A,Zacatecas,MX,-102.57,22.78
450 Yonge St.,Toronto,CA,-79.38,43.66
浦东新区,上海市,CN,121.59,31.2
吴江区,苏州市,CN,120.64,31.12
243 High Road,Loughton,GB,0.06,51.65
11-21 Nakamachi,Hanno,JP,139.32,35.85
Furocho Chikusa-ku,Nagoya,JP,136.96,35.16
"Lot G35 & G80, Aman Central Mall",Alor Setar,MY,100.37,6.13
Town Quay Unit 1,Southampton,GB,-1.41,50.9
金山区,上海市,CN,121.34,30.75
瑶海区,合肥市,CN,117.35,31.88
25-1 Minamiyatsugaike Kuroda,Kisogawacho,JP,136.77,35.35
"No.157, Sec.1, Zhongshan Rd.",New Taipei City,TW,121.51,25.01
15-1 Honchibamachi Chuo-ku,Chiba,JP,140.12,35.61
646-15 우신빌딩 1층,서울,KR,127.04,37.5
162 Rue du Faubourg Saint Honore,Paris,FR,2.31,48.87
"21, Ground Floor",Muang Chiangmai,TH,98.98,18.8
Mok-ri,Icheon,KR,127.24,37.15
市北区,青岛市,CN,120.41,36.11
Aleja Rzeczypospolitej 23,Warsaw,PL,21.07,52.16
550-777 Royal Oak Dr,Victoria,CA,-123.38,48.5
10340 102 st,Edmonton,CA,-113.49,53.55
浦东新区,上海市,CN,121.61,31.18
136-140 Buchanan Street,Glasgow,GB,-4.25,55.86
2-1-13 Shimoyamatedori Chuo-ku,Kobe,JP,135.19,34.69
804/812 Oxford Street,Swansea,GB,-3.95,51.62
1-854-1 Miyahara Kita-ku,Saitama,JP,139.62,35.93
156 Jozo Weider Blvd,Collingwood,CA,-80.31,44.5
北部新区,重庆市,CN,106.51,29.6
100 Cherni Vrah Blvd,Sofia,BG,23.32,42.66
空港经济开发区,天津市,CN,117.43,39.16
"Dominguez, Colonia Centro de Cuidad",Mexico City,MX,-99.19,19.39
329-1 Gwangjang-dong,Seoul,KR,127.62,37.33
36 Robinson Road,Singapore,SG,103.85,1.28
4174 Sokak No:4 Bagburnu Mevkii,Izmir,TR,27.2,38.43
10 St Georges Road,Glasgow,GB,-4.27,55.87
徐汇区,上海市,CN,121.46,31.22
"50, Grammy Place",Wattana,TH,100.56,13.74
938 Niiborimachi,Maebashi,JP,139.1,36.33
"70 Biopolis street,",Singapore,SG,103.79,1.3
Lufthavnsboulevarden 6,Kastrup,DK,12.65,55.63
5-2-19 Shichikuyama Chuo-ku,Niigata,JP,139.07,37.9
18 rue de Dunkerque,Paris,FR,2.36,48.88
秦淮区,南京市,CN,118.78,32.03
3-2-8 Oyamagaoka,Machida,JP,139.38,35.6
Av. Kepler No. 2143,Puebla,MX,-98.23,19.02
Lebuh Tun Hussein Onn,Balakong,MY,101.76,03.03
浦东新区,上海市,CN,121.52,31.23
"Glorietta 4, Theater Lobby, Ayala Center",Makati City,PH,121.03,14.55
2-3-8 Masakinaka,Gifu,JP,136.74,35.45
"663-13, Siksa-dong, Ilsandong-gu",Goyang-si,KR,126.81,37.68
东丽区,天津市,CN,117.36,39.13
"1024-4, Yeongtong-dong, Yeongtong-gu",Suwon,KR,127.08,37.25
六合区长江路10号101和027铺位,南京市,CN,118.84,32.34
Unit 3 Clarehall Retail Park,Dublin,IE,-6.18,53.4
市北区,青岛市,CN,120.39,36.11
都江堰,成都市,CN,103.64,30.99
1-2-1 Kitabaru Nishi-ku,Fukuoka,JP,130.26,33.58
Airside Departures Lounge,Liverpool,GB,-2.86,53.34
188-190 High Street,Southend on Sea,GB,0.71,51.54
Koningin Julianaplein 10-15,Den Haag,NL,4.32,52.08
1-10-4 Nishimaiko Tarumi-ku,Kobe,JP,135.03,34.64
98 Buckingham Palace road,London,GB,-0.15,51.49
湖州,湖州市,CN,120.1,30.87
West Bay Street,Nassau,BS,-77.47,25.07
鲤城区,泉州市,CN,118.59,24.92
1-9-39 Kitamachi Azouno,Kochi,JP,133.55,33.58
3-1 Aoyamacho,Kure,JP,132.57,34.24
"23rd Ziduri Mosi Street, 2nd Dist",Bucharest,RO,26.12,44.45
Avenida Libertador Bernardo O Higgins,Santiago,CL,-70.66,-33.44
1-22 Shintomicho,Kawagoe,JP,139.48,35.91
7-1-29 Minatomachi,Matsuyama,JP,132.76,33.84
Javier Barros Sierra,Mexico City,MX,-99.26,19.37
370 Alexandra Road,Singapore,SG,103.8,1.29
Laupenstrasse 1,Bern,CH,7.44,46.95
东陵区,沈阳市,CN,123.62,41.84
"617, Sampyeong-dong, Bundang-gu",Seongnam-si,KR,127.1,37.4
"No. 12, Jalan Imbi",Kuala Lumpur,MY,101.71,3.14
1105 Wellington Rd.,London,CA,-81.22,42.93
Wood Lane Underground Station,London,GB,-0.22,51.51
"Anderou Papandrou 35, Psalidi,",Athens,GR,23.79,38.05
Unit 44/45 Stillorgan Village,Dublin,IE,-6.2,53.29
连云区,连云港市,CN,119.37,34.74
拱墅区,杭州市,CN,120.14,30.32
高新区,襄阳市,CN,112.13,32.06
"Shop 20B, G/F, Island Resort Mall",Hong Kong,CN,114.25,22.27
东城区,北京市,CN,116.45,39.89
Al Suwaidi Al Am Road,RIYADH,SA,46.7,24.6
Av. Insurgentes Sur No. 1647,Mexico City,MX,-99.18,19.36
8-3 Mihama,Chatan-cho,JP,127.76,26.31
Paseo de Potosi 2,Barcelona,ES,2.2,41.44
义乌,义乌市,CN,120.08,29.31
上海市闵行区,上海市,CN,121.46,31.04
1-1 Muromachi Kokurakita-ku,Kitakyushu,JP,130.88,33.89
江苏省南京市,南京市,CN,118.82,31.93
桥东区,石家庄,CN,114.5,38.04
"No.230, Sec.4, Zhongxiao E. Rd.",Taipei City,TW,121.55,25.04
"Lot No. 20B, Level 1,",Bintulu,MY,102.23,4.41
"107 Londres, Col. Juarez",Mexico City,MX,-99.16,19.43
2-3 Motomachi,Chigasaki,JP,139.41,35.33
东城区,北京市,CN,116.44,39.93
The Broadway,London,GB,-0.3,51.51
9-2-13 Kozudai Kita-ku,Kobe,JP,135.2,34.86
1-5-1 Marunouchi,Chiyoda-ku,JP,139.76,35.68
虞山镇,常熟市,CN,120.74,31.64
越秀区,广州市,CN,113.29,23.14
Leningradskoe Shossee 16,Moscow,RU,37.5,55.82
如皋市,南通市,CN,120.55,32.39
509 Bayfield Street,Barrie,CA,-79.71,44.41
Fener Mah. Tekelioglu Cad. TerraCity,Antalya,TR,30.76,36.85
Presidente Masaryk #360 Col. Polanco,Mexico City,MX,-99.2,19.43
Independencia Boulevard,Torreon,MX,-103.44,25.55
Torggata 17B,Oslo,NO,10.75,59.92
Paradise Island,Nassau,BS,-77.33,25.09
شارع عبدالله عبد اللطيف العثمان,مدينة الكويت,KW,48.01,29.35
南山区,深圳市,CN,113.9,22.52
13-14 White Lion Walk,Guildford,GB,-0.58,51.24
Barbaros mah. Halk caddesi 8 /B,Istanbul,TR,29.1,40.99
3601 St-Laurent Blvd,Montreal,CA,-73.57,45.51
559 Oe-dong,Gimhae-si,KR,128.86,35.23
1-1-3 Shinsenrihigashimachi,Toyonaka,JP,135.49,34.81
TBD,DAMMAM,SA,49.8,26.46
Konya Yolu Mevlana Bulv. Taurus Ankara,Ankara,TR,32.81,39.89
87 Grand 5 Hotel & Plaza Sukhumvit,Klong Toey,TH,100.55,13.74
212 Morato Ave. cor. Dr. Lazcano Street,Quezon City,PH,121.03,14.63
惠城区,惠州市,CN,114.4,23.09
Theatergaesslein 17,Basel,CH,7.59,47.55
220 Aurel Vlaicu Bd.,Constanta,RO,28.65,44.21
Buyukdere Cad. Astoria Alisveris Merkezi,Istanbul,TR,29.01,41.07
"No.11, Songgao Road, Xinyi District",Taipei City,TW,121.55,25
1-55 Ekimae-odori,Toyohashi,JP,137.38,34.76
"344-1, Namgajwa-dong, Seodaemun-gu",Seoul,KR,126.92,37.58
海曙区,宁波市,CN,121.56,29.87
宝安,深圳市,CN,113.88,22.58
"100 feet ring road, K.A.S Officer",Bangalore,IN,77.59,12.91
1-1931 Owadacho Minuma-ku,Saitama,JP,139.66,35.92
2-1-1 Osu,Fuchu-cho,JP,132.5,34.39
Sanjo-Kawaramachi-Higashiiru Nakagyo-ku,Kyoto,JP,135.77,35.01
上海市静安区,上海市,CN,121.44,31.29
Av. Prolongacion Madero,Monterrey,MX,-100.27,25.68
Av. Constituyentes No. 57,Queretaro,MX,-100.39,20.58
河东区,天津市,CN,117.22,39.13
"Ground Floor, Gardens Galleria",Noida,IN,77.33,28.57
"185-3, Yucheon-dong, Jung-gu, Daejeon",Daejeon,KR,127.4,36.32
南明区,贵阳,CN,106.69,26.57
"Av. Cristobal Colon 4289, Las Condes",Santiago,CL,-70.58,-33.42
1 Bass Pro Mills Drive,Concord,CA,-79.54,43.83
"464-1, Mugeo-dong, Nam-gu",Ulsan,KR,129.26,35.55
Stirling Road,Larbert,GB,-3.85,56.03
King Faisal Highway,Umm Al Quwain,AE,55.54,25.53
"14-5, Sangnam-dong",Changwon,KR,128.68,35.28
1-35-2 Takadanobaba,Shinjuku-ku,JP,139.7,35.71
"O7, 18 A",MANNHEIM,DE,8.47,49.48
"88 Jalan Ibrahim Sutan, Stulang Laut",Johor Bahru,MY,103.78,1.47
3-2-2 Kitaaoyama,Minato-ku,JP,139.72,35.67
"Paseo Tollocan, esq. 1° de Mayo",Toluca,MX,-99.68,19.27
"No.267, Lequn 2nd Rd.",Taipei City,TW,121.56,25.08
KONIGSTRASSE 48,DUISBURG,DE,6.77,51.43
新会区会城大新路50号,江门市,CN,113.04,22.52
"Upper McKinley Road, McKinley Hills",Taguig City,PH,121.06,14.54
1327-3 Kaizawamachi,Takasaki,JP,139.03,36.34
Blvd. Pino Payas y Carreterra La Paz,La Paz,MX,-110.34,24.12
崇安区广南路1号,无锡市,CN,120.34,31.59
755-1 Kusumoto Tamazawa,Oita,JP,131.58,33.19
"Level 3 Tower 2, Enterprise Center",Makati City,PH,121.02,14.56
"City Gate, Park HIl, Cork",Cork,IE,-8.41,51.89
Impact Chalenger,Pakkred,TH,100.55,13.91
1000 Airport Pkwy Private,Ottawa,CA,-75.67,45.32
1-13-25 Daimyo Chuo-ku,Fukuoka,JP,130.4,33.59
滨湖区博大假日广场1号1049号,无锡市,CN,120.28,31.49
"88-5,Euljiro 2-ga",Seoul,KR,126.99,37.57
Ealing - The Green (11-12),Ealing,GB,-0.31,51.51
"126-3,Jeongja-dong",Seongnam,KR,127.11,37.36
North East Outlet Centre,Durham,GB,-1.37,54.82
39 Henry Street,Dublin 2,IE,-6.26,53.35
Nextengo 71,Mexico City,MX,-99.19,19.47
Oderstrasse 11,Neumunster,DE,9.98,54.04
白云区,广州市,CN,113.27,23.18
165 - 167 High Street,Orpington,GB,0.1,51.38
"3, cours de la Garonne",Serris,FR,2.78,48.85
"Unit 2, Classic Drive",Coventry,GB,-1.49,52.44
San Lorenzo 25,Cordoba,AR,-64.31,-31.32
4-1 Ogawacho Kawasaki-ku,Kawasaki,JP,139.7,35.53
上海市宝山区,上海市,CN,121.44,31.33
6 Gravias Street,Aghia Paraskevi,GR,23.83,38
Av. Velasco Astete 1002 esquina con Prim,Lima,PE,-76.97,-12.02
鼓楼区,南京市,CN,118.78,32.07
1-20 Imaizumi Chuo-ku,Fukuoka,JP,130.4,33.59
"Unit 8 Lower, Pier 5",Chaltham,GB,0.53,51.4
10355 King George Hwy,Surrey,CA,-122.85,49.19
5-27 Suwazaka Tsurumi-ku,Yokohama,JP,139.67,35.51
"964-6, Seosin-dong",Jeonju-si,KR,127.12,35.83
西城区,北京市,CN,116.38,39.91
1 Gordon Street,Glasgow,GB,-4.26,55.86
17967 56th Avenue,Surrey,CA,-122.73,49.1
DIFC Building No. 5,Dubai,AE,55.16,25.1
思明区,厦门市,CN,118.08,24.46
11300 Tuscany Boulevard NW,Calgary,CA,-114.25,51.12
Unit 9,Exeter,GB,-3.53,50.71
Primrose Valley,Nr Filey,GB,-0.29,54.19
6334 Metral Drive,Nanaimo,CA,-124.04,49.23
"161 & 181 Bay Street, Concourse",Toronto,CA,-79.38,43.65
番禺区,广州市,CN,113.33,23.03
3-113 Eojin-dong,Sejong,KR,127.16,36.3
中山区,大连市,CN,121.63,38.92
No.42 Renmin Road,Suzhou,CN,120.55,31.88
Rest Area KM 72A tol Cipularang,Bandung,ID,107.44,-6.47
吴兴区,湖州市,CN,120.1,30.87
Blvd. Juan Pablo II S/N,Tuxtla Gutierrez,MX,-93.08,16.75
Frederiksborggade 15,Copenhagen,DK,12.57,55.68
매산로1가53-9,경기도,KR,127,37.27
昆山,昆山市,CN,120.98,31.38
Bahnhofplatz 2,St. Gallen,CH,9.37,47.42
"1084-1 Ilsan-dong, Ilsan seo-gu, Gyeongg",GYEONGGI,KR,126.77,37.68
"No. 1, Jalan SS7/26A, Kelana Jaya",Petaling Jaya,MY,101.6,3.11
"No.74 Shida Rd., Da an Dist.",Taipei City,TW,121.53,25.02
Av. Jinetes No. 84,Mexico City,MX,-99.22,19.56
海淀区,北京市,CN,116.36,40.05
17 Moorgate,London,GB,-0.09,51.52
esq Constituyentes y calle 16 bis nte,Can Cun,MX,-87.07,20.63
"Sec.1, Zhonghua E. Rd. & Yunong Rd.",Tainan City,TW,120.23,22.99
AEROPUERTO DE LAS PALMAS - Terminal TA.,Telde,ES,-15.39,27.94
1-11-6 Jiyugaoka,Meguro-ku,JP,139.67,35.61
Jantarová 3344/4,Ostrava,CZ,18.29,49.83
657-104. Hannam 1-dong Yongsan-gu,Seoul,KR,126.6,37.33
Avenue Costera Miguel Aleman 97,Acapulco,MX,-99.87,16.86
武侯祠大街231号,成都市,CN,104.05,30.64
"1-1-1, Miyamachi",Mito,JP,140.48,36.37
174-13 suyu-dong gangbuk-gu Seoul,seoul,KR,127.03,37.64
通州区,北京市,CN,116.66,39.89
Near Spinneys Round Bord,Sharjah,AE,55.4,25.35
طريق خريص-قرب مستشفى سليمان الحبيب,الرياض,SA,46.77,24.72
35 First Commerce Drive,Aurora,CA,-79.41,44.01
Down Town Burj,Dubai,AE,55.27,25.19
S DTM40 Motorway J13 Banbury Rd Ashorne,Warwick,GB,-1.5,52.22
599 Kuwagi,Oyama-cho,JP,138.97,35.31
Jl. M H Thamrin Kav 3,Jakarta,ID,106.82,-6.18
Magsaysay Ave near corner Dayangdang St,Naga City,PH,123.2,13.63
"Avenida Sao Joao, 2200, Piso Superior",Sao Jose do Campos,BR,-45.89,-23.19
6-24-1 Nishishinjuku,Shinjuku-ku,JP,139.69,35.7
60-5 갑을 그레이트 밸리 1층,서울,KR,126.89,37.48
400 Earl Grey Drive,Kanata,CA,-75.91,45.31
Hradčanské náměstí - Kajetánka,Prague,CZ,14.4,50.09
"Norte Mosqueta 259, Esq. Insurgentes N",Mexico,MX,-99.13,19.49
"Liviu Rebreanu Street, no 7A, Dist 3",Bucharest,RO,26.15,44.42
708-6 LG화재 빌딩,서울,KR,127.05,37.5
Jalan Fuad Stephen,Kota Kinabalu,MY,116.07,5.98
"Athlone, Co Westmeath",Athlone,IE,-7.94,53.42
浙江省嘉兴市,嘉兴市,CN,120.69,30.76
"150-2, Seomun-dong, Sangdang-gu",Cheongju,KR,127.49,36.64
Mindanao Ave,Quezon City,PH,121.03,14.68
Arnulfstrasse 34,Munich,DE,11.56,48.14
158 Cromwell Road,London,GB,-0.19,51.5
杨浦区,上海市,CN,121.51,31.32
2-18-19 Nishiki Naka-ku,Nagoya,JP,136.9,35.17
"371-37, Gasan-Dong, Geumcheon-Gu",Seoul,KR,126.88,37.48
"CC Príncipe Pío, Pº de la Florida 2.",Madrid,ES,-3.72,40.43
900 Pyeonggeo-dong,Gyeongnam,KR,128.06,35.17
海淀区,北京市,CN,116.28,39.91
1641-2 Podo Mall 1층,서울,KR,126.93,37.48
"Emerald Ave, Ortigas Center",Pasig City,PH,121.06,14.59
虹口区,上海市,CN,121.47,31.27
普陀区,上海市,CN,121.42,31.24
The Shires Retail Park,Leamington Spa,GB,-1.55,52.28
Porte Maillot CC,Paris,FR,2.28,48.88
Kaleej Road,DAMMAM,SA,49.99,26.35
鄞州区,宁波市,CN,121.55,29.83
南海区,佛山市,CN,113.01,23.12
崂山区,青岛市,CN,120.46,36.1
"1023 Gwonseon-Dong, Gwonseon-Gu",Suwon,KR,127.03,37.26
Unit 2122,London,GB,-0.22,51.51
10250-101 Street,Edmonton,CA,-113.49,53.54
5 Rue de la Roquette,Paris,FR,2.37,48.85
上海市浦东新区,上海市,CN,121.52,31.21
Sheikh Zayed Road,Dubai,AE,55.28,25.21
Julio Vargas Avenue corner Frontera Driv,Pasig City,PH,121.08,14.58
"Dona Julia Vargas Ave., Ortigas Center",Mandaluyong City,PH,121.06,14.58
South Avenue,Makati,PH,121.03,14.57
978 Coxwell Avenue,Toronto,CA,-79.33,43.7
杨浦区,上海市,CN,121.52,31.3
"186 Otley Road, Headingley",Leeds,GB,-1.59,53.84
江苏省苏州市,苏州市,CN,120.73,31.32
2311A 8th St E,Saskatoon,CA,-106.62,52.12
Postbus 75041,Schiphol,NL,4.76,52.31
37 - 39 St Georges Terrace,Newcastle,GB,-1.61,54.99
67 rue Lafayette,Paris,FR,2.34,48.88
滨湖新区,合肥市,CN,117.3,31.74
80 Dog Kennel Hill,London,GB,-0.08,51.46
17 Boulevard de Vaugirard,Paris,FR,2.32,48.84
1-1-43 Abenosuji Abeno-ku,Osaka,JP,135.51,34.65
Av. Andres Bello 2447 Local 1200 Prov,Santiago,CL,-70.61,-33.42
Fray Servando Teresa de Mier No. 964,Mexico City,MX,-99.1,19.42
Cheadle Road,Cheadle,GB,-2.21,53.39
南山区,深圳市,CN,113.93,22.52
Avda. Diagonal no 3,Barcelona,ES,2.19,41.4
60 High Street,Marlow,GB,-0.78,51.57
"18,Athinon Str,",Larnaca,CY,33.64,34.91
2288 Granville Street,Vancouver,CA,-123.14,49.27
Carr Toluca Mex km 48.7,Toluca,MX,-99.49,19.28
Boulevard Nazario Ortiz Garza No. 2345,Saltillo,MX,-100.98,25.46
450-1 Esu,Uruma,JP,127.83,26.35
普陀区,上海市,CN,121.37,31.24
Av. Corrientes 857,BUENOS AIRES,AR,-58.38,-34.6
3 Canal,San Miguel de Allende,MX,-100.74,20.91
"Montecito 38, Colonia Napoles",Mexico City,MX,-99.17,19.39
"Jl. Asia Afrika, Lot 19",Jakarta,ID,106.8,-6.23
"Lot S1, Ground Floor, PTD 220529",MUKIM PLENTONG,MY,103.88,1.51
Av. Argentina 3093 Minka,Callao - Lima,PE,-77.11,-12.05
1132-3 성진빌딩1층,경기도,KR,126.93,37.36
51,서울,KR,127.05,37.51
2-12-7 Imakatata,Otsu,JP,135.92,35.12
Senlik Mah. Yesilkoy Asfalti Harman Sok.,Istanbul,TR,28.8,40.97
"Lot No.4, Persiaran Setia Impain",Shah Alam,MY,101.5,3.13
Sheik Zayed,Dubai,AE,55.15,25.08
Moorland Service Station,Stoke on Trent,GB,-2.18,53.05
1-2-10 Tsutsujigaoka Miyagino-ku,Sendai,JP,140.89,38.26
3035 Argentia Road,Mississauga,CA,-79.79,43.6
726 St. Anne's Road,Winnipeg,CA,-97.08,49.82
成华区,成都市,CN,104.11,30.67
金水区,郑州市,CN,113.67,34.81
Dubai Airport,Dubai,AE,55.35,25.25
Temple Drive,Quezon City,PH,121.07,14.6
"1-1, Chuocho, Kagoshima",Kagoshima,JP,130.54,31.58
Lazaraki & Gr. Labraki,Athens,GR,23.75,37.86
Av.Ventura Puente #744,Morelia,MX,-101.18,19.69
1 Bass Pro Mills Dr.,Vaughan,CA,-79.53,43.82
106 Danforth Avenue,Toronto,CA,-79.36,43.68
"Unit H3, Gilbrook Retail Park",Nottingham,GB,-1.28,53
3085 Hwy-7,Markham,CA,-79.35,43.85
"No. 36, Jalan Istana Larut",Taiping,MY,100.74,4.86
"Ladplakhao Road, Bangkhen district",Bangkok,TH,100.61,13.86
Raimundo Fernandez Villaverde 79,Madrid,ES,-3.7,40.45
2 Elizabeth Street,Melbourne,AU,144.97,-37.82
Gokturk Merkez Mahallesi,Istanbul,TR,29.09,41.14
1-6-1 Nishishinnjuku,Shinjuku-ku,JP,139.7,35.69
675 Yonge,Toronto,CA,-79.39,43.67
金港大道338号吾悦广场一楼123室,苏州市,CN,120.54,31.84
25 Consumers Drive,Whitby,CA,-78.91,43.87
16-18 Palmer Street,London,GB,-0.14,51.5
岳麓区,长沙市,CN,112.95,28.2
顺义区,北京市,CN,116.6,40.08
725 West Main Avenue,Bayamon,PR,-66.16,18.41
Pan American Highway and Street Chiltiup,Antiguo Cuscatlan,SV,-89.25,13.68
70 Shawville Boulevard SW,Calgary,CA,-114.07,50.91
Namesti republiky 1,Praha,CZ,14.43,50.09
"Mai Khao, Thalang",Phuket,TH,98.31,8.1
Place de Cornavin 7,Geneve,CH,6.14,46.21
"249, Chungjindong, Jongrogu, Seoul",Seoul,KR,126.98,37.57
江苏省常州市,常州市,CN,119.98,31.84
1115 Finch Avenue West,Toronto,CA,-79.48,43.77
Av. Toluca #1086,Mexico City,MX,-99.24,19.34
2795 East Hastings St,Vancouver,CA,-123.05,49.28
Blv Mariano Escobedo No. 2502 y 2504,Leon,MX,-101.66,21.11
2-10-2 Fujimi,Chiyoda-ku,JP,139.74,35.7
Jalan Teuku Umar Sultan Agung No. 1,Lampung,ID,105.15,-5.23
"45 Azadlig Avenue, No K3.08",Baku,AZ,49.85,40.38
Carretera al Salvador,San Jose Pinula,GT,-90.45,14.55
人民南路4段19号威斯顿联邦大厦1楼,成都市,CN,104.07,30.62
313 High Street,Lincoln,GB,-0.54,53.23
"218 Brook Street, Building",Guaynabo,PR,-66.11,18.36
普陀区,上海市,CN,121.41,31.24
Ave. Manuel L. Barragan # 1600,Monterrey,MX,-100.32,25.72
"Unit 1-3, La Flora Avenue Patong",Katu,TH,98.3,7.9
"AL Fanater, Sparkey's building",Jubail,SA,49.57,27.15
Av. Del libertador 3800,Buenos Aires,AR,-58.42,-34.57
4010 Bayview Street,Richmond,CA,-123.18,49.12
2-7-1 Hitachinohigashi,Ushiku,JP,140.16,36.01
新城大道北路269-325号1F-05A,慈溪市,CN,121.27,30.17
"Canal de Tezontle 1520, Iztapalapa",Mexico City,MX,-99.08,19.38
Unit 1-3,Lucan,IE,-6.45,53.35
360 Elmwood Drive,Moncton,CA,-64.77,46.12
"Hwasung Park Dream S Apt. 101-ho, 202-ho",Daegu,KR,128.37,35.52
"Homero n.503, Col. Chapultepec Morales",DF,MX,-99.19,19.44
青羊区,成都市,CN,103.97,30.68
"11, Jalan Raja Laut",KL,MY,101.69,3.16
شارع العليا-مقابل العقارية,الرياض,SA,46.68,24.7
"Iasi, 5D Palas Street",Iasi City,RO,26.05,44.39
19 The Gallery,Sheffield,GB,-1.41,53.41
"No.97, Xingdong Rd",Luodong Township,TW,121.77,24.68
"86-22, Sangsu-Dong, Mapo-Gu",Seoul,KR,126.92,37.55
杨浦区,上海市,CN,121.54,31.28
Jalan Grand Boulevard BSD,Tangerang,ID,106.39,-6.18
2-9 Yurakucho,Chiyoda-ku,JP,139.76,35.67
Heinkelstrasse 1-11,Ludwigsburg,DE,9.15,48.92
"Kashirskoye shosse, 24 km of MKAD",Moscow,RU,37.72,55.59
904 Avenue Emiliano Zapata,Cuernavaca,MX,-99.25,18.96
Charles de Gaulle Airport,Roissy-en-France,FR,2.54,49.01
"Sime Darby Medical Centre, No. 1",Selangor,MY,101.59,03.08
1641 Davie Street,Vancouver,CA,-123.14,49.29
Mecidiye Mah. Degirmen Sok. No:16,Istanbul,TR,29.03,41.05
"Lot LG-16, 17 & 18, Low Ground Floor",Kuala Lumpur,MY,101.75,03.08
Haci Feyzullah Mah.Guvercindada CadScala,Aydin,TR,27.25,37.86
"Cineworld Loughborough, Baxter Gate",Loughborough,GB,-1.2,52.77
2662 Austin Avenue,Coquitlam,CA,-122.82,49.25
"Cassablanca, Kuningan",Jakarta,ID,106.83,-6.23
渝中区,重庆市,CN,106.51,29.54
1-16-1 Tamagawa,Setagaya-ku,JP,139.63,35.61
Urho Kekkosen katu 1,Helsinki,FI,24.93,60.17
Guldenvlieslaan,Brussels,BE,4.35,50.83
开发区,昆山市,CN,120.96,31.35
"Upper Ground Floor, Infiniti Mall",Mumbai,IN,72.83,19.18
3-38-1 Shinjuku,Shinjuku,JP,139.7,35.69
Vítězné náměstí 2,Praha,CZ,14.4,50.1
"54, Sangin 1-dong, Dalseo-gu",Daegu,KR,128.53,35.82
9,강원도,KR,127.73,37.88
静安区,上海市,CN,121.45,31.22
武昌区,武汉市,CN,114.34,30.54
上海市金山区,上海市,CN,121.02,30.89
529-16 1층,부산,KR,128.97,35.11
JL. Letjen S Parman Kav 28,Jakarta,ID,106.79,-6.17
Jl. Tol Jakarta Cikampek,Bekasi,ID,107.21,-6.35
Braunerstrasse 2,Wien,AT,16.37,48.21
2-27-7 Ikejiri,Setagaya-ku,JP,139.68,35.65
100 City Centre Drive,Mississauga,CA,-79.64,43.59
Jl. K H R Abdullah Bin Nuh No. 33,Bogor,ID,106.77,-6.56
455 George Street,Sydney,AU,151.21,-33.87
"589-10, Guui-dong, Gwangjin-gu",Seoul,KR,127.09,37.54
Terminal Maritima Playa del Carmen,Playa del Carmen,MX,-87.08,20.62
2-10-11 Akasaka,Minato-ku,JP,139.74,35.67
85-5 Myeongdong-1ga,Seoul,KR,126.98,37.56
M3 Services Fleet Services,Fleet,GB,-0.86,51.3
800 McBride Boulevard,New Westminster,CA,-122.91,49.22
Jalan Pratama Tanjung Benoa,Nusa Dua,ID,115.22,-8.77
Jl. Lapangan Banteng Utara No. 1,Jakarta,ID,106.83,-6.17
"7336, Taepyeong-dong",Seongnam,KR,127.14,37.44
459-4 1층,서울,KR,127.14,37.53
黄浦区,上海市,CN,121.48,31.23
정자동 12-2 성원 상떼뷰 201-101,경기도,KR,127.11,37.37
"770-1, Janghangdong, Ilsandonggu",Gyeonggido,KR,126.46,37.39
"211 Jeongja-Dong, Bundang-Gu",Seongnam,KR,127.12,37.36
"Persiaran Wawasan, Pusat Bandar Puchong",Puchong,MY,101.63,03.04
Professor B.M.Teldersweg 4,Den Haag,NL,4.29,52.1
Avenue Elmer Faucett S/N,Lima,PE,-77.11,-12.02
730 William Avenue,Winnipeg,CA,-97.16,49.91
南山区,深圳市,CN,113.99,22.52
工业园区,苏州市,CN,120.69,31.3
"SM Aura, McKinley Parkway",Taguig City,PH,121.05,14.55
雁塔区,西安市,CN,108.94,34.22
1-18 Dainichi-higashimachi,Moriguchi,JP,135.58,34.75
623 Takane,Mizuho-cho,JP,139.35,35.78
19705 Fraser Highway Unit 221,Langley,CA,-122.67,49.11
徐汇区,上海市,CN,121.44,31.18
333 Brooksbank Ave.,North Vancouver,CA,-123.04,49.31
建邺区,南京市,CN,118.74,32.03
北京市,北京市,CN,116.3,39.82
"3/F Fully Booked, Bonifacio High Street",Taguig City,PH,121.05,14.55
长宁区,上海市,CN,121.32,31.19
4408 50th Avenue,Red Deer,CA,-113.81,52.26
1-8-19 Dotonbori Chuo-ku,Osaka,JP,135.5,34.67
107-45800 Promontory Rd,Chilliwack,CA,-121.96,49.11
Akpinar Mah. Kanuni Cad.,Istanbul,TR,29.24,40.97
崇安区,无锡市,CN,120.3,31.58
"6-4, Cheongdam-dong, Gangnam-gu",Seoul,KR,127.05,37.52
Ave. Lazaro Cardenas 2311,San Pedro Garza Garcia,MX,-100.33,25.65
Middle Xingning road and outer ring road,Ningbo,CN,121.43,29.3
"Ave. Providencia #2951, Col Providencia",Guadalajara,MX,-103.39,20.7
Jalan Jendral Sudirman Kav 52-53,Jakarta,ID,106.81,-6.22
3-1-20 Yanagimachi,Tomakomai,JP,141.64,42.66
No.88 Suhui Road,Suzhou,CN,120.67,31.31
渝中区 `,重庆市,CN,106.58,29.56
Near MOE Ski Area,Dubai,AE,55.2,25.12
海珠区,广州市,CN,113.32,23.1
1-9-1 Higashishinbashi,Minato-ku,JP,139.76,35.66
Stationsplein 16,Breda,NL,4.78,51.6
Eschersheimer Landstrasse 223,Frankfurt,DE,8.67,50.13
"Upper Ground Floor, Phoenix Market City,",Bangalore,IN,77.7,13
"Al Khawaneej Road, Al Rashidiya",Dubai,AE,55.4,25.23
1-2 Kitaguchicho,Nishinomiya,JP,135.36,34.75
103 Hacienda Grande,Santiago de Queretaro,MX,-100.41,20.57
"1212-22, Choryang-dong, Dong-gu",Busan,KR,129.08,35.19
527-529 King Street West,Toronto,CA,-79.4,43.64
861 York Mills Rd,North York,CA,-79.35,43.75
Türkmen Mah. Atatürk Bulv.,Aydin,TR,27.26,37.86
"Av. Pavao, 667",Sao Paulo,BR,-46.67,-23.61
闸北区,上海市,CN,121.46,31.24
罗湖区,深圳市,CN,114.11,22.54
浙江省金华市,金华市,CN,119.88,29.25
"40th cor., 11th Sth., Unit 4",Taguig City,PH,121.05,14.55
"Mezzanine Floor, The Pinnacle, Persiaran",Petaling Jaya,MY,101.61,03.07
Damrak  80-81,Amsterdam,NL,4.89,52.37
苏州市工业园区,苏州市,CN,120.65,31.31
"Upper Mckinley Road, McKinley Hill",Taguig City,PH,121.05,14.53
San Martin 150,Buenos Aires,AR,-58.37,-34.61
"179, 1st Floor  BKK City Tower",Sathorn,TH,100.53,13.72
"Paseo de la Marina No. 121 Local 25,",Puerto Vallarta,MX,-105.25,20.67
Yrigiyen 2647,Boulogne,AR,-57.87,-34.88
和平区,天津市,CN,117.18,39.12
17-35 Gloucester Road,London,GB,-0.18,51.5
"سلطنة عمان, ميناء الفهد, المواليه, شارع قابوس, موقع رقم: 001, ص.ب 527, ب.س 116",مسقط,OM,58.56,23.62
120 Adelaide Street West,Toronto,CA,-79.38,43.65
天河区,广州市,CN,113.34,23.12
"76, 1 Edmonton City Centre NW",Edmonton,CA,-113.49,53.54
Nispetiye Mah. Aytar Cad.,Istanbul,TR,29.02,41.07
"Ocean Mall, Avenida de la Rotonda",Panama City,PA,-79.47,09.01
Circuito Interior Juan Pablo II #3302,Puebla,MX,-98.23,19.04
M6 Motorway Northbound,Newcastle,GB,-2.29,52.99
شارع فلسطين-مقابل القنصلية الامريكية,جدة,SA,39.16,21.52
17 RUE DE LA REPUBLIQUE.,MARSEILLE,FR,5.37,43.3
朝阳区,北京市,CN,116.48,40
黄兴南路步行街,长沙市,CN,112.98,28.19
4-3-4 Jingumae,Shibuya-ku,JP,139.71,35.67
9-1 Hakataeki-chuogai Hakata-ku,Fukuoka,JP,130.42,33.59
Glasgow Fort,Glasgow,GB,-4.14,55.87
5-1saki Ginza,Chuo-ku,JP,139.76,35.67
Serrano 75,Santiago,CL,-70.65,-33.45
"Av. Dep. Benedito Matarazzo, 9403, Piso",Sao Jose do Campos,BR,-45.88,-23.2
5763 Dalhousie Road,Vancouver,CA,-123.24,49.27
140-176 Wilson Street,Victoria,CA,-123.38,48.43
西陵区,宜昌市,CN,111.29,30.71
2-5-25 Yutakacho,Kashiwa,JP,139.96,35.85
45 코오롱빌딩 1층,서울,KR,126.98,37.57
浙江省温州市,温州市,CN,120.69,27.95
شارع صارى,جدة,SA,39.15,21.58
"Baghdad St. Ln 2, Salmiya",Salmiya,KW,48.04,29.34
"Unit 7B, First Street",Manchester,GB,-2.25,53.47
Av. La Marina 505 esq. Paseo Libertad,Lima,PE,-71.54,-16.4
闵行区,上海市,CN,121.31,31.2
Fulham Broadway Station,London,GB,-0.19,51.48
上海市浦东新区,上海市,CN,121.68,31.16
124 Southhampton Row,London,GB,-0.12,51.52
2-22-2 Neyaminami,Neyagawa,JP,135.65,34.77
1-5-11 Mihama,Chatan-cho,JP,127.76,26.31
Bonanpack Ave esq Nichupte,Cancun,MX,-86.82,21.15
"Shop No. 15, Level 2, APM, Millennium Ci",Kowloon,CN,114.23,22.31
11040 8th Street,Dawson Creek,CA,-120.22,55.75
Yorganci Ciftligi Mevki Ormanada Sitesi,Istanbul - Avrupa,TR,29.04,41.21
Incirlik Ussu 10. Sencer Komutanligi,Adana,TR,35.44,37
武进区,常州市,CN,119.95,31.73
799 New Upper Changi Road,Singapore,SG,103.93,1.32
Karasuma-Shiokouji-Sagaru Shimogyo-ku,Kyoto,JP,135.76,34.99
"Canaverales #222, Col. Granjas Coapa",Mexico,MX,-99.11,19.29
"Real Plaza Centro Cívico, Av. Paseo de",Lima,PE,-77.04,-12.06
"R. Domingos de Morais, 2564, Piso Terreo",Sao Paulo,BR,-46.64,-23.6
The Bridges,Sunderland,GB,-1.38,54.91
"No. 210, Cianfong Road",Tainan City,TW,120.21,23
657 Dupont Street,Toronto,CA,-79.42,43.67
Av. Popocatepetl 540 esquina con av.,Mexico City,MX,-99.15,19.36
福田区,深圳市,CN,114.1,22.55
676 Avenue Hacienda Penuelas,Monterrey,MX,-100.4,25.73
1015 Dawson Road,Thunder Bay,CA,-89.25,48.45
7165 138 Street,Surrey,CA,-122.84,49.13
"1F., No.66, Yanfa. Rd.",Kaohsiung City,TW,120.3,22.72
"East Lancashire Road, Windle Island",St Helens,GB,-2.77,53.47
"114 Muswell Hill,",London,GB,-0.14,51.59
宝安区,深圳市,CN,113.82,22.62
1055 Dunsmuir Street,Vancouver,CA,-123.12,49.29
"The Lion, 1 Junction Road, London",London,GB,-0.13,51.57
南山区,深圳市,CN,113.98,22.54
Pliensaustrasse 8,Esslingen,DE,9.31,48.74
2790 Av St David,Quebec,CA,-71.21,46.86
1-3-1 Tsudanuma,Narashino,JP,140.02,35.69
917번지 목동파라곤 1층,서울,KR,126.88,37.53
1-20 Kandacho Tarumi-ku,Kobe,JP,135.05,34.63
"Al Aqsa Mosque Street, Block 5",Mushrif,KW,48.05,29.28
"904, 2nd Floor Seacon Square",Prawet,TH,100.65,13.69
202/204 Clapham High Street,London,GB,-0.14,51.46
Jalan Buah Batu No 159,Bandung,ID,107.62,-6.94
Jalan Jenderal Sudirman No. 1,Jakarta,ID,106.49,-6.12
The O2,London,GB,0,51.5
Boulevard Cafe Bar,Milton Keynes,GB,-0.76,52.04
Rosetta St. Fifth Terrace & Patton St,Nassau,BS,-77.33,25.07
上海市青浦区,上海市,CN,121.3,31.19
170 Wardour Street,London,GB,-0.14,51.52
6564 East Hastings St,Burnaby,CA,-122.97,49.28
مجمع مكة 2 مقابل الصويفية,عمان,JO,35.84,31.98
朝阳区,北京市,CN,116.43,39.99
1011 Upper Middle Road East,Oakville,CA,-79.7,43.48
98 Tsimiski,Crete,GR,24.02,35.52
1-3-16 Taiko Nakamura-ku,Nagoya,JP,136.88,35.17
"198 Uljiro-2ga, Jung-gu",Seoul,KR,126.98,37.57
419 King St. West,Oshawa,CA,-78.88,43.89
杭州市萧山区,杭州市,CN,120.27,30.18
拱墅区,杭州市,CN,120.12,30.33
1-3-1 Minamisaiwai Nishi-ku,Yokohama,JP,139.62,35.47
"Jl. Iskandarsyah II No. 2, Blok M",Jakarta,ID,106.8,-6.24
盐都区,盐城市,CN,120.16,33.34
Circuito Medicos #6,Naucalpan,MX,-99.23,19.51
Akcay Cad. Optimum Outlet ve Eglence,Izmir,TR,27.13,38.34
363-1 Yangjeongdong,Busan,KR,129.07,35.17
382 E Island Highway,Parksville,CA,-124.3,49.32
黄陂区,武汉市,CN,114.26,30.73
"Ground floor, Phoenix Market City",Pune,IN,73.92,18.56
"Gran Vía, 20",Bilbao,ES,-2.93,43.26
144-25 태리타워 1층,서울,KR,127.06,37.51
"93 Buam-dong, Busanjin-gu",Busan,KR,129.05,35.16
105,울산,KR,129.43,35.52
Jl. Bintaro Utama 9,Banten,ID,106.71,-6.28
西岗区,大连市,CN,121.61,38.91
静安区,上海市,CN,121.45,31.23
"401-13, Jangjeon-dong, Geumjeong-gu",Busan,KR,129.08,35.23
MacArthur Highway,Angeles City,PH,120.59,15.15
945 West Columbia,Kamloops,CA,-120.35,50.67
St Marys Street,Cardiff,GB,-3.18,51.48
新浦区,连云港市,CN,119.18,34.6
1981-3 Suwa Tennocho Higashiku,Hamamatsu,JP,137.76,34.74
Burj Dubai,Dubai,AE,55.28,25.19
"M5 Motorway Northbound, Junction 13/14",Gloucestershire,GB,-2.43,51.66
3393 Portage Avenue,Winnipeg,CA,-97.3,49.88
"3, boulevard des Capucines",Paris,FR,2.33,48.87
徐汇区,上海市,CN,121.42,31.17
"25-18, Daesong-ri, Seosaeng-myeon, Ulju-",Ulsan,KR,129.36,35.36
2-4-1 Iizumi,Shisui-machi,JP,140.29,35.72
荔湾区,广州市,CN,113.25,23.11
"Bangna-Trad Road, Bang Keaw, Bang Plea",Samut Prakan,TH,100.66,13.66
3-1-3 Hongo,Bunkyo-ku,JP,139.76,35.7
"Calle Velazquez, 32",Madrid,ES,-3.68,40.42
"Lot S11, Aero Mall",Johor Bahru,MY,103.67,1.64
484-6 Guemhodong Sokchosi,Sokcho,KR,128.59,38.2
"No.313, Sec.1, Nangang Rd.",Taipei City,TW,121.61,25.06
DEUTSCHHOFSTRASSE SHOP 1.13,HEILBRONN,DE,9.22,49.14
6400 Nancy Green Way,Vancouver,CA,-123.1,49.37
شارع علي عبد الوهاب المطوع,مدينة الكويت,KW,48.01,29.28
芙蓉区,长沙市,CN,113.01,28.2
"Rua Haddock Lobo, 608",Sao Paulo,BR,-46.66,-23.56
982,Yannawa,TH,100.54,13.67
浙江省绍兴市,绍兴市,CN,120.64,30.1
Tol Cikampek Palimanan KM 102 A,Cikampek,ID,107.72,-6.51
500 Edinbourough S,Guelph,CA,-80.23,43.52
"Roosevelt 2408, esquina Av. Cabildo",Buenos Aires,AR,-58.46,-34.56
First World Hotel,Genting Highland,MY,101.79,3.42
海珠区,广州市,CN,113.29,23.1
Jalan Dharmawangsa VI,Jakarta,ID,106.8,-6.25
闵行区,上海市,CN,121.37,31.18
270 Amirault,Dieppe,CA,-64.73,46.09
"Av. Meritxell, 96",Andorra la vella,AD,1.53,42.51
"Portion of 2/F, Sun Kwai Hing Plaza,",Hong Kong,CN,114.13,22.36
338 Moo 16,Surin,TH,103.53,14.88
南山区,深圳市,CN,113.94,22.52
St Pancras International Station,London,GB,-0.13,51.53
4-23 Hakataekichuogai Hakata-ku,Fukuoka,JP,130.4,33.59
"Londres #127, Local #38, Plaza La Rosa",Mexico City,MX,-99.16,19.43
"4-4-10, Takezaki-cho,",Yamaguchi,JP,130.92,33.95
Shaw Blvd near corner EDSA,Mandaluyong City,PH,121.05,14.58
야탑동 357-1 뉴코아 야탑점 아울렛 1층,경기도,KR,127.13,37.41
Balchug street 3/2,Moscow,RU,37.63,55.75
"Av. Vicuña Mackenna 4860, Macul",San Joaquin,CL,-70.62,-33.5
1-1-1 Tennodai,Tsukuba,JP,140.1,36.11
Unit 31 Market Gates Shopping  Centre,Great Yarmouth,GB,1.73,52.61
Altınkum Mah. Akdeniz Bulv.,Antalya,TR,30.64,36.86
Units 3B & 4,Stevenage,GB,-0.2,51.89
3-11-6 Shinjuku,Shinjuku-ku,JP,139.71,35.69
50 -51 Western Road,Hove,GB,-0.16,50.83
"1289 Palbong-ri Seo-myeon, Hongcheon-gun",Gangwon,KR,127.69,37.65
亚龙湾旅游度假区,三亚市,CN,109.64,18.23
1114 Henderson Hwy,Winnipeg,CA,-97.09,49.94
浦东新区,上海市,CN,121.62,31.12
samga-dong,Yongin-si,KR,127.17,37.24
2-1-1 Aobadai Aoba-ku,Yokohama,JP,139.52,35.54
589 Fairway Rd S,Kitchener,CA,-80.45,43.42
"2572-4, Yongdamsam-dong",Jeju-si,KR,126.48,33.51
Seaside Blvd Mall of Asia Complex,Pasay City,PH,120.98,14.53
4926 Bathurst Street,Toronto,CA,-79.44,43.77
1-1 Hakataeki-Chuogai Hakata-ku,Fukuoka,JP,130.42,33.59
4 Egyetem sqr,Budapest,HU,19.06,47.49
"No.619,longchang Rd",shanghai,CN,121.54,31.27
湖里区,厦门市,CN,118.19,24.53
1750-1 Ikenobe,Miki-cho,JP,134.12,34.29
城阳区,青岛市,CN,120.42,36.3
"572-2,Jaesong-dong",Busan,KR,129.12,35.18
문화일보사건물 1층,서울,KR,126.97,37.57
1237 Baikseok-dong IlsanDong-gu Goyang-s,Goyang,KR,126.79,37.64
"628 Xa Lo Ha Noi Highway, Dist 2",Ho Chi Minh,VN,106.75,10.8
"Open Space next to Shop 2115-6, L2",New Territories,CN,114.23,22.42
Blvd Manuel Avila Camacho 3034,Naucalpan,MX,-99.24,19.49
شارع البحرين,مدينة الكويت,KW,48.09,29.33
1 Ferry Causeway c/o BC Ferry Terminal,Delta,CA,-123.13,49.01
朝阳区,北京市,CN,116.46,39.95
Av. José Pedro Alessandri 1166,Santiago,CL,-70.6,-33.47
5484 Cote-des-Neiges,Montreal,CA,-73.62,45.5
Istiklal Mah. Porsuk Bulv. No11-11B,Eskisehir,TR,30.52,39.78
"1515, Gwanjeo-dong, Seo-gu",Daejeon,KR,127.34,36.3
HANSE CARREE,MÜNSTER,DE,7.63,51.96
清城区,清远市,CN,113.01,23.71
140 Kajimachi Naka-ku,Hamamatsu,JP,137.73,34.7
1-4-14 Koraku,Bunkyo-ku,JP,139.75,35.7
海淀区,北京市,CN,116.31,39.91
"890-5, Janghang-dong, Ilsandong-gu",Goyang,KR,126.78,37.65
68 Takashimacho,Fuji,JP,138.67,35.16
Maxwell Road,Beaconsfield,GB,-0.64,51.61
江干区,杭州市,CN,120.21,30.24
芙蓉区,长沙市,CN,112.98,28.19
Malostranské náměstí 28/5,Praha,CZ,14.4,50.09
"Cumhuriyet Blv.173,Ataturk Street 198",Izmir,TR,27.14,38.43
武侯区,成都市,CN,104,30.65
شارع محمد بن عبد العزيز,جدة,SA,39.15,21.55
222 Tofumachi,Himeji,JP,134.69,34.83
"302-60 Dongbu Ichon-Dong, Yongsan-gu",Seoul,KR,126.97,37.52
"112-25, Goean-dong, Sosa-gu",Bucheon-si,KR,126.81,37.48
"Shop No.UG39, UG/F, The Laguna Mall No.8",Hong Kong,CN,114.19,22.31
Guvenevler Mah.,Afyon,TR,30.44,38.82
Calzada Vallejo numero 1090,Mexico,MX,-99.15,19.49
1-9-2 Kagurazaka,Shinjuku,JP,139.74,35.7
徐汇区,上海市,CN,121.45,31.2
Netroufalky 770,Brno,CZ,16.57,49.18
3-2-1 Gion Asaminami-ku,Hiroshima,JP,132.46,34.44
"2034 ItalThai Tower,1 F Retail Hall",Huaykwang,TH,100.57,13.75
7-20-3 Nagamachi Taihaku-ku,Sendai,JP,140.88,38.23
,부산,KR,129.15,35.16
上海市黄浦区,上海市,CN,121.47,31.22
"Rua Coronel Moreira Cesar, 35, Loja 102",Niteroi,BR,-43.11,-22.9
1079 Maple Ave,Milton,CA,-79.87,43.54
110 Bloor Street West,Toronto,CA,-79.39,43.67
"225, Pattaya Beach Road. Moo 9",Chonburi,TH,100.89,12.94
Cevdet Pasa Cad. #30,Istanbul,TR,29.05,41.08
Umm-Al Qawain Ajman & Sharjah hwy,Ras Al Khaimah,AE,55.78,25.68
130 Kadekaru,Nishihara-cho,JP,127.77,26.22
"San Rafael de Escazu, Paralelo a Ruta 27",San Jose,CR,-84.15,9.94
"308, 4th Ave SW",Calgary,CA,-114.07,51.05
11-17 York St,Sydney,AU,151.21,-33.87
"128-8, Yeongundong, Jongrogu",Seoul,KR,127,37.58
"86-4, Matsugamotomachi",Ibaraki,JP,135.56,34.81
"Vejthani Hospital, No.1",Bangkapi,TH,100.64,13.77
"99 Moo 4, Super Highway Rd, Muang",Chaing Mai,TH,99.02,18.8
"Manquehue Norte 457, Las Condes",Santiago,CL,-70.57,-33.4
10001 - 107th Street,Edmonton,CA,-113.5,53.54
420 Vansickle Road,St. Catharines,CA,-79.27,43.15
"No. 769, Jalan Bukit Bintang",Kuala Lumpur,MY,101.71,3.15
"2-3-6, Kyonancho",2-3-6 Kyonancho,JP,139.54,35.7
"Chengqing Rd & Wenheng Rd, Sanmin Dist",Kaohsiung City,TW,120.34,22.64
Av. Paseo de los Leones # 2400 Col. Cumb,Monterrey,MX,-100.38,25.71
1-5-5 Ebisuminami,Shibuya-ku,JP,139.71,35.65
Road #693 Barrio Higuillar KM 8.5,Dorado,PR,-66.28,18.46
LANDGRABENWEG 151,BONN,DE,7.14,50.72
Av. Division del Norte No. 1746,Mexico City,MX,-99.16,19.37
"No.1, Duxing 1st Rd.",Hsinchu City,TW,121.02,24.77
101 Northbrook Street,Newbury,GB,-1.32,51.4
经济技术开发区,湛江市,CN,110.4,21.25
Blvd. Juan Alonso de Torres #1315,Leon,MX,-101.6,21.13
Thumamah Rd with Uthman Ibn Affan Rd,RIYADH,SA,46.69,24.82
"Main Street, Blackrock, Co.Dublin",Dublin,IE,-6.18,53.3
3-15-25 Takaban,Meguro-ku,JP,139.68,35.63
"2 Jurong East Central 1, #02-19",Singapore,SG,103.74,1.33
"No. 1, Shizheng N 1st Road",Taichung City,TW,121.14,22.75
"Shop Unit G1A, Atrium A, Telford Plaza I",Kowloon,CN,114.21,22.32
增城荔城街,广州市,CN,113.82,23.28
Aksemettin Mah Adnan Menderes Vatan Bulv,Istanbul,TR,28.95,41.01
100 - 2nd Avenue S,Saskatoon,CA,-106.66,52.13
东城区,北京市,CN,116.4,39.94
虹口区,上海市,CN,121.48,31.26
1-14 Kanamemachi,Oita,JP,131.61,33.23
1371 Van Horne,Montreal,CA,-73.62,45.52
Demirkapi Koyu Sose Maden Yolu Varan,Balikesir,TR,28.12,39.83
奎文区,潍坊市,CN,119.16,36.7
"Cineworld, 181 Broad St",Birmingham,GB,-1.91,52.47
双流县双楠大道中段633号,成都市,CN,103.95,30.6
Altmarkt 7,Dresden,DE,13.74,51.05
"Persiaran Indahpura Utama, Bdr Indahpura",Johor Bharu,MY,103.62,1.64
7-1-1 Honcho,Funabashi,JP,139.99,35.7
1059-6 Kajiyamakubo Nagatoro,Kasama,JP,140.34,36.31
江汉区,武汉市,CN,114.29,30.58
高淳区,南京市,CN,118.87,31.32
CENTRO MALL - OBERHAUSEN,OBERHAUSEN,DE,6.88,51.49
"27-2, Jungangdong, Junggu",Busan,KR,129.3,35.62
5-47,서울,KR,127.07,37.54
66 km MKAD,Moscow,RU,37.39,55.82
"قطر , الدوحة, منطقة السعد, مستشفى الدوحة",الدوحة,QA,51.5,25.29
和平区,沈阳市,CN,123.4,41.75
2564 Shaughnessy Street,Port Coquitlam,CA,-122.78,49.26
"No. 220, Sec. 1, Wenhua Rd, Banqiao Dist",New Taipei City,TW,121.47,25.02
Higashinoto-Takoyakushi-Sagaru Nakagyo-ku,Kyoto,JP,135.76,35.01
17 Worthington Avenue,Brampton,CA,-79.81,43.68
南开区,天津市,CN,117.18,39.14
亭湖区,盐城市,CN,120.12,33.38
38-5 Toyama Tosakicho,Okazaki,JP,137.16,34.94
江北区,重庆市,CN,106.53,29.58
64/98-99,Lardprao,TH,100.62,13.81
85 Laird Dr,Toronto,CA,-79.36,43.71
宝山区,上海市,CN,121.35,31.4
江苏省苏州市,苏州市,CN,120.67,31.28
104 London Road North,Lowestoft,GB,1.75,52.48
232-1 Koumyomachi,Matto,JP,136.58,36.52
"Al Markhaniya , Al Ain",Al Ain,AE,55.4,24.12
青浦区,上海市,CN,121.11,31.15
和平区,沈阳市,CN,123.41,41.79
12-2 Inarimae,Tsukuba,JP,140.13,36.05
"M4 Motorway, J14/15 membury,",Hungerford,GB,-1.56,51.48
"526-5, Hadan-dong, Saha-gu",Busan,KR,128.97,35.11
"No.2, Taiyuan 1st St.",Zhubei City,TW,121.02,24.84
"Sec. 2, Zhongshan Rd",Yuanlin Township,TW,120.57,23.96
秦都区,咸阳市,CN,108.71,34.34
Place de la Gare 4,Vevey,CH,6.84,46.46
5-4 Denmacho,Shizuoka,JP,138.39,34.97
高新区,宁波市,CN,121.64,29.89
"UGF, Central Square, Bonifacio High St.,",Taguig,PH,121.05,14.55
ul. Św. Marcin 24,Poznań,PL,16.93,52.41
闵行区,上海市,CN,121.39,31.18
上海市嘉定区,上海市,CN,121.33,31.3
"Unit 64, Frenchgate Interchange",Doncaster,GB,-1.14,53.52
沙坪坝区,重庆市,CN,106.46,29.56
"Rua Goncalves Crespo, 78, 3 Pavimento,",Sao Paulo,BR,-46.58,-23.54
"46-73, Hawolgokdong, Sungbukgu",Seoul,KR,127.23,37.37
Nikis Avenue & Gounari Street,Thessaloniki,GR,22.95,40.63
songdogwahakro27,Incheon,KR,126.66,37.39
"Camino Las Flores 12640, Local 1 y 8, La",Santiago,CL,-70.52,-33.39
浦东新区东靖路1881号,上海市,CN,121.61,31.29
邗江区,扬州市,CN,119.42,32.4
10504 82nd Avenue,Edmonton,CA,-113.5,53.52
Jalan Sultan Ismail,Kuala Lumpur,MY,101.7,3.16
100 Lynn Williams St,Toronto,CA,-79.42,43.64
海曙区,宁波市,CN,121.55,29.88
PARISER PLATZ 4A,BERLIN,DE,13.38,52.52
145 Richmond Street West,Toronto,CA,-79.39,43.65
浦东新区,上海市,CN,121.51,31.23
1-4-12 Sonezakishinchi Kita-ku,Osaka,JP,135.5,34.7
"157 Sinbanpo-ro, Seocho-gu",Seoul,KR,127.05,37.3
"No.22, Sec. 3, Minquan E. Road",Taipei City,TW,121.55,25.06
Haci Mehmet Efendi Cad. No:23 D:1-2,Istanbul,TR,29.05,40.97
JL. Pangeran Antasari No. 36,Jakarta,ID,106.81,-6.28
徐汇区,上海市,CN,121.41,31.17
yeouidodong 23-6,seoul,KR,126.92,37.52
高新区,成都市,CN,104.07,30.6
1-6 Minami 3-chome Nishi 21-jo,Obihiro,JP,143.14,42.92
1095 강서 그랜드 아이파크,서울,KR,126.85,37.55
ul. Kamieńskiego 11,Kraków,PL,19.95,50.03
"8-17, Songdo-dong, Yeonsu-gu,",Incheon,KR,126.64,37.38
83 Punggol Central,Singapore,SG,103.9,1.41
浦东新区,上海市,CN,121.54,31.22
苎萝东路555号,绍兴市,CN,120.27,29.7
"706-1, Singa-dong, Gwangsan-gu",Gwangju,KR,126.83,35.18
江苏省徐州市,徐州市,CN,117.96,33.9
Mansourieh Main Road,Mansourieh,LB,35.56,33.86
上海浦东国际机场T2,上海市,CN,121.81,31.15
东莞市,东莞市,CN,113.68,22.83
AV SAN JERONIMO 819 COL SAN JERONIMO,DISTRITO FEDERAL,MX,-99.23,19.32
"Av. Alfredo Mendiola Nro. 1400,",Lima,PE,-76.98,-12.15
天河路208号天河城首层北门103C号铺,广州市,CN,113.32,23.13
上海市虹口区,上海市,CN,121.49,31.25
Inkilap Mah. Kucuksu Caddesi,Istanbul,TR,29.12,41.04
岳麓区,长沙市,CN,112.93,28.16
宝安区,深圳市,CN,113.86,22.76
181 Bay Street,Toronto,CA,-79.38,43.65
1210 Summit Drive,Kamloops,CA,-120.35,50.67
"No. 78-3, Sec 3, Taichung Kang Rd",Taichung City,TW,120.62,24.18
Zhongzheng Rd.& Datong Rd.,Tainan City,TW,120.29,23.13
"Carretera Nacional KM 268,  La Rioja",Monterrey,MX,-100.24,25.58
"1479-7, Samgae-dong",Gimhae,KR,128.87,35.28
LUISENPLATZ 4,DARMSTADT,DE,8.65,49.87
2-11-1 Nagatacho,Chiyoda-ku,JP,139.74,35.67
Ipswich Rd,Wooloongabba,AU,153.03,-27.5
1-1 Nigiwaihiroba,Imabari,JP,132.96,34.04
Dubai Palm Island,Dubai,AE,55.12,25.13
Umihotaru Nakajimachisaki,Kisarazu,JP,140.11,35.61
高新区,成都市,CN,104.07,30.6
"Unit P230, 2 Flr MuangThaiPhatra Complex",Huaykwang,TH,100.57,13.79
"93 Nguyễn Du, Quận 1",Thành Phố Hồ Chí Minh,VN,106.7,10.78
闵行区,上海市,CN,121.4,31.13
"Nevsky ave, 114/116",Saint Petersburg,RU,30.36,59.93
2-30 Wakamatsucho,Yokosuka,JP,139.67,35.28
浦东新区,上海市,CN,121.52,31.22
Jl. Prof Dr. Satrio No. 164,Jakarta Selatan,ID,106.82,-6.23
"G/F, East Block, St Teresa's Hospital",Hong Kong,CN,114.18,22.33
南山区,深圳市,CN,113.92,22.5
2533 Kazahaya Myojincho,Hisai,JP,136.46,34.68
美兰区,海口市,CN,110.35,20.02
"Jl. TB Simatupang, Jakarta Selatan",Jakarta,ID,106.8,-6.28
Aleja Wyzwolenia 18-20,Szczecin,PL,14.55,53.43
"293-9, Seogwi-dong",Seogwipo-si,KR,126.56,33.25
1-4-3 Nishishinsaibashi Chuo-ku,Osaka,JP,135.5,34.67
工业园区,苏州市,CN,120.71,31.32
46 King Street West,Dundas,CA,-79.96,43.27
23981 Dewdney Trunk Road,Maple Ridge,CA,-122.56,49.22
"1A, Amberes Col. Juarez, Del. Cuauhtemoc",Mexico City,MX,-99.17,19.43
"109, Jae-dong, Jongno-gu",Seoul,KR,126.99,37.58
4567 Lougheed Highway,Burnaby,CA,-123,49.27
浙江省嘉兴市,嘉兴市,CN,120.93,30.84
JL Asia Afrika No 8,Jakarta,ID,106.8,-6.23
Paseo General Escalon y 77 Avenida Sur,San Salvador,SV,-89.24,13.7
长宁区,上海市,CN,121.38,31.19
"No. 11,13,15 Jiuhe 2nd St.",Zhongli City,TW,121.25,24.95
道里区,哈尔滨,CN,126.62,45.78
Stationsplein 85,Amersfoort,NL,5.37,52.15
Malabia 1720,Buenos Aires,AR,-58.43,-34.59
Wandsworth Bridge Road,London,GB,-0.19,51.47
成华区,成都市,CN,104.09,30.68
1149-1 Matsudo,Matsudo,JP,139.9,35.78
Carrera 43 A No. 3 Sur 92,Medellin,CO,-75.57,6.2
"No.50, Ln. 46, Minsheng Rd.",New Taipei City,TW,121.52,25
935 St. Albert Trail,St. Albert,CA,-113.64,53.67
嘉定镇,上海市,CN,121.25,31.38
"234/2, Major Avenue Ratchayothin,",Chatujak,TH,100.57,13.83
浦东新区,上海市,CN,121.8,31.15
4-1-13 Nakanedai,Ryugasaki,JP,140.17,35.93
徐汇区,上海市,CN,121.44,31.19
Shops 12A & 12B on G/F Shatin Galleria,New Territories,CN,114.19,22.4
静安区,上海市,CN,121.45,31.23
婺城区,金华市,CN,119.65,29.08
浙江省衢州市,衢州市,CN,118.87,28.96
"Centrio Mall, CM Recto Avenue",Cagayan de Oro,PH,124.65,8.48
岳麓区,长沙市,CN,112.94,28.22
"705, Jungbu-Dong",Yangsan,KR,129.03,35.34
普陀区,上海市,CN,121.35,31.28
"1790-8 Beobheung-Ri, Tanhyeon-Myeon",Paju,KR,126.7,37.77
Izmir-Cesme Otoyolu 26.500 Km,Izmir,TR,26.86,38.36
492-5,경상남도,KR,128.11,35.15
فندق سنافير - نعمة بيه,,EG,34.33,27.91
Stockholm Centralstation,Stockholm,SE,18.06,59.33
"Lot TC-05, IOI Galleria @ The Cube",Puchong,MY,101.62,03.03
5-4-27 Minamiaoyama,Minato-ku,JP,139.71,35.66
411 East Columbia Street,New Westminster,CA,-122.89,49.23
南京市建邺区,南京市,CN,118.74,32.03
"Ground Floor, Pacific Mall",New Delhi,IN,77.11,28.64
1469-1 Mukaiunoshima Matsue,Wakayama,JP,135.15,34.24
长宁区,上海市,CN,121.41,31.21
1 Handayama Higashi-ku,Hamamatsu,JP,137.74,34.76
Sahkulu Mah. Istikal Cad No. 469-471,Istanbul,TR,28.98,41.03
"36-7,Hannam dong",Seoul,KR,127.01,37.53
开发区,昆山市,CN,121.06,31.38
"50 Euiljiro-1ga, Jung-gu",Seoul,KR,126.98,37.57
"4, Theofanous Str.",Athens,GR,23.76,37.99
116 St NW & 92 Avenue NW,Edmonton,CA,-113.53,53.53
"882-2, Dange-dong",Wonju,KR,127.93,37.34
116 King Street W,Hamilton,CA,-79.87,43.26
Av. Carlos Hank Gonzalez No. 120,Ecatepec,MX,-99.03,19.53
"1-3, Nonhyeon-dong, Gangnam-gu,",Seoul,KR,127.02,37.52
"No. 139-141, Sec. 3, Changrong  Rd",Tainan City,TW,120.32,23.32
"Dalma Mall, Mussafah",Abu Dhabi,AE,54.49,24.4
"Singil-dong, Danwon-gu",Ansan,KR,126.78,37.33
Jalan Kebangsaan Lama,Bandar Seri Begawan,BN,114.94,4.91
鄞州区,宁波市,CN,121.55,29.8
Leppavaarankatu 3,Espoo,FI,24.81,60.22
3-1-2 Matsuigaoka,Kyotanabe,JP,135.73,34.83
南关区,长春市,CN,125.34,43.9
Juarez 30 Col Centro,Mexico City,MX,-98.22,19.05
Zurcherstrasse 464,St. Gallen,CH,9.3,47.41
Leisureplex,Dublin,IE,-6.39,53.39
2-15-2 Konan,Minato-ku,JP,139.74,35.63
长宁区,上海市,CN,121.4,31.19
"215 Yaowarat Road,Samphantawong",Bangkok,TH,100.51,13.74
Via Israel y Boulevard Pacifica,Panama,PA,-79.51,8.98
Sehrekustu Mah Cemal Nadir Cad Zafer Plz,Osmangazi,TR,29.06,40.19
Victoria Street,Blackpool,GB,-3.05,53.82
شارع السور,مدينة الكويت,KW,48,29.38
G/F Ayala Malls Serin,Tagaytay City,PH,120.96,14.11
120 5th Avenue West,Cochrane,CA,-114.47,51.19
香洲区,珠海市,CN,113.58,22.28
11646 Sarcee Trail NW,Calgary,CA,-114.16,51.16
"Av. Profa. Izoraida Marques Peres, 401",Sorocaba,BR,-47.46,-23.53
Istiklal Cd No 186,Samsun,TR,36.34,41.28
Siyuan Rd.,New Taipei City,TW,121.46,25.05
Av. Lomas de Mazatlan & Av. Camaron Saba,Mazatlan,MX,-106.45,23.24
4698 Kingsway,Burnaby,CA,-123,49.23
1-22 Hamanomachi,Nagasaki,JP,129.88,32.74
官渡区,昆明市,CN,102.93,25.1
9450 137th Ave NW,Edmonton,CA,-113.49,53.6
Aerop. Internacional Nuevo Pudahuel,Santiago,CL,-70.79,-33.4
10116 109th Street,Edmonton,CA,-113.51,53.54
Unit 2B Block D,Beverley,GB,-0.42,53.84
人民南路四段三号,成都市,CN,104.07,30.63
1690 Huron Church Road,Windsor,CA,-83.06,42.29
2525 36th St. North East,Calgary,CA,-113.98,51.07
"Av. Dr. Antonio Maria de Laet, 566",Sao Paulo,BR,-46.6,-23.48
A.B. Fernandez Ave.,Dagupan,PH,120.34,16.04
كورنيش النيل أبراج النايل سيتى,,EG,31.23,30.07
845 Hwy 401 Eastbound,Port Hope,CA,-78.27,43.96
3820 Oak Street,Vancouver,CA,-123.13,49.25
USE AKSCHEN 4,BREMEN,DE,8.75,53.11
1-6-1 Azuma,Tsukuba,JP,140.11,36.08
江苏省苏州市,苏州市,CN,120.75,31.27
"419-1, Seoseok-dong, Dong-gu",Gwangju,KR,126.55,35.84
GF Vista Mall Pampanga,San Fernando,PH,120.65,15.06
Ave. Playacar,Playa del Carmen,MX,-87.09,20.61
"M1 Motorway Northbound, Junction 30/31",Sheffield,GB,-1.28,53.32
"No.183, Sec.2, Zhongshan N. Rd.",New Taipei City,TW,121.52,25.06
城阳区,青岛市,CN,120.39,36.27
"Carretera Guadalajara-Chapala, Km. 17.5,",Guadalajara,MX,-103.3,20.52
"501, Orchard Road #B1-01",Singapore,SG,103.83,1.3
Grd Flr Red Chillies Entertainment Bldg,Mumbai,IN,72.83,19.08
上城区,杭州市,CN,120.18,30.22
1-1 Kamishiroganecho,Hirosaki,JP,140.46,40.6
64 Notting Hill Gate,London,GB,-0.2,51.51
Av. Francisco Villarreal Torres #11204,Ciudad Juarez,MX,-106.38,31.71
368 Urayasu Nagashimacho,Kuwana,JP,136.73,35.03
Bahnhofstrasse 60,Saarbruecken,DE,6.99,49.24
"779, Jayang-dong, Gwangjin-gu",Seoul,KR,127.08,37.54
"755-14 Bangbae-Dong, Seocho-Gu",Seoul,KR,126.99,37.5
"C.C. Caminos del Inca, Calle Monterrey",Lima,PE,-77.03,-12.06
东阳市吴宁街道南街51号,金华市,CN,120.23,29.26
"Unit 35B, WhiteWater Shopping Centre",Newbridge,IE,-6.8,53.18
3401 Dufferin St,Toronto,CA,-79.45,43.73
1831 Robertson Road,Nepean,CA,-75.82,45.33
2-26-37 Minamiaoyama,Minato-ku,JP,139.72,35.67
144 Leva Ave,Red Deer County,CA,-113.82,52.21
Avenida Coyoacan No. 1622,Mexico City,MX,-99.17,19.37
6200 University Blvd,Vancouver,CA,-123.25,49.27
新城区,西安市,CN,108.96,34.27
2-10-3 Tenjin Chuo-ku,Fukuoka,JP,130.4,33.59
"990, Rama IV Road, Silom, Bangrak",Bangkok,TH,100.54,13.73
6005-1 Minakuchi Minakuchicho,Koka,JP,136.19,34.97
"Calzada San Juan De Aragon, No. Ext. 516",Mexico City,MX,-99.08,19.47
鹿溪南路365号,江山市,CN,118.63,28.73
Piccadilly Station,Manchester,GB,-2.23,53.48
Av. Paseo de La Reforma # 69,Mexico City,MX,-99.15,19.43
1095 Pender Street,Vancouver,CA,-123.12,49.29
"Carretera Federal 2100, region 100",Playa del Carmen,MX,-87.09,20.62
حي الوحة,الظهران,SA,50.16,26.33
6544 Fraser,Vancouver,CA,-123.09,49.23
"168, Geumgok-dong, Bundang-gu",Seongnam-si,KR,127.11,37.35
762 Haengsin-dong,Goyang-si Gyeonggi-do,KR,126.83,37.61
172-4 Mukomachi,Kofu,JP,138.61,35.65
1-1-3 Degawa,Matsumoto,JP,137.98,36.22
8-22 Uenokoen,Taito-ku,JP,139.77,35.72
海湖新区,西宁市,CN,101.72,36.64
上海市闵行区,上海市,CN,121.35,31.15
Praditmanootham Road,Bangkok,TH,100.61,13.8
605 Davie Street,Vancouver,CA,-123.13,49.28
1221 Canyon Meadows Drive SE,Calgary,CA,-114.03,50.93
Stranden 7,Oslo,NO,10.73,59.91
1801-1 Fukazawa,Gotemba,JP,138.96,35.31
"Shop No. G01, Ground Floor, Mikiki 638",Kowloon,CN,114.2,22.33
300 m al norte del polideportivo,Guachipelin,CR,-84.16,9.94
江北区,宁波市,CN,121.56,29.88
Stationsplein,Rotterdam,NL,4.47,51.92
泺源大街66号,济南市,CN,117.03,36.66
2990 Mountain Highway,North Vancouver,CA,-123.04,49.34
"Beehive Business Park, Haslingdon Road",Blackburn,GB,-2.45,53.73
"1018, Daegok-dong, Dalseo-gu",Daegu,KR,128.52,35.81
"CC Xanadu s/n, Cra A5 km 23,5",Madrid,ES,-3.92,40.28
Gatwick Terminal,West Sussex,GB,-0.19,51.16
"Rua XV de Novembro, 8, 3o piso",Niteroi,BR,-43.12,-22.9
6-7 Kurakakecho,Nishinomiya,JP,135.34,34.73
Place Kléber,Strasbourg,FR,7.75,48.58
"1490-1, Jung-dong, Haeundae-gu",Busan,KR,129.18,35.16
浦东新区,上海市,CN,121.81,31.15
218-5 Jungri-dong,Icheon,KR,127.45,37.28
Rozybakiev Street 263,Almaty,KZ,76.89,43.2
2194-82 Oicho,Ena,JP,137.44,35.45
高新区,成都市,CN,104.07,30.59
45/64-5,Bangpakong,TH,101.01,13.54
1st Floor Montien Plaza Shopping Mall,Bangrak,TH,100.53,13.73
"Shop No. G4-6, Ground Floor, Great Eagle",Hong Kong,CN,114.17,22.28
浦东新区,上海市,CN,121.81,31.15
Daegu Dept. Store 1F,Daegu,KR,128.6,35.87
1400 Ottawa Street,Kitchener,CA,-80.51,43.42
Rayyan Street,Doha,QA,51.26,25.19
大兴区,北京市,CN,116.53,39.78
Calzada Norte #7195 Col. Ciudad Granja,Guadalajara,MX,-103.45,20.68
Jalan Tol Jagorawi,Bogor,ID,106.84,-6.58
900 South Woodlands Drive,Singapore,SG,103.79,1.44
东城区,北京市,CN,116.41,39.91
市中区市中区经四路5号魏家庄万达广场一层,济南市,CN,117,36.66
802 West Hastings Street,Vancouver,CA,-123.12,49.29
River Drive,Tamworth,GB,-1.7,52.63
9200 Weston Rd,Woodbridge,CA,-79.56,43.83
3-46-4 Shimorenjaku,Mitaka,JP,139.56,35.7
"Rua do Carmo, 11",Rio de Janeiro,BR,-43.18,-22.9
5019 Spectrum Way,Mississauga,CA,-79.61,43.65
4-1-5 Keyakidai,Moriya,JP,140,35.94
东城区,北京市,CN,116.42,39.9
BREITE GASSE 41,NÜRNBERG,DE,11.08,49.45
浙江省宁波市,宁波市,CN,121.44,29.3
631 Commissioners Road East,London,CA,-81.23,42.96
841 Rye Street,Peterborough,CA,-78.35,44.28
4-12-20 Kitaiioka,Morioka,JP,141.13,39.67
777-11 bangbae-dong,seocho-gu,KR,126.99,37.49
ul.Emilii Plater 53,Warszawa,PL,21,52.23
Shopwise Commonwealth Ave,Quezon City,PH,121.08,14.68
浦东新区,上海市,CN,121.59,31.21
400 Campbell Road,St Albert,CA,-113.58,53.65
"Circuito Ingenieros # 11, Locales A y B,",Mexico City,MX,-99.23,19.51
"No. 45, Sec. 4, Jhongsiao East Road",Taipei City,TW,121.55,25.04
Renaissace Curacao Hotel Mall,Willemstad,CW,-68.94,12.11
Oscar R. Benavides 314 Frente a Parque,Lima,PE,-77.03,-12.06
Av. Begonias 718,Lima,PE,-77.03,-12.06
"No. 323, Sec. 1,  Fushin South Road",Taipei City,TW,121.54,25.02
12 rue Montgrand,Marseille,FR,5.38,43.29
"24, boulevard Saint-Michel",Paris,FR,2.34,48.85
Aviatická - terminál sever 1,Praha,CZ,14.27,50.11
"Shop 1008, Level 1, Discovery Park 399",Hong Kong,CN,114.11,22.38
787 Bank Street,Ottawa,CA,-75.69,45.4
6005-1 Shobu Shobucho,Kuki,JP,139.61,36.08
2601 Westview Dr,North Vancouver,CA,-123.09,49.33
"Av. Ejército Nacional 980, local K12",Mexico City,MX,-99.21,19.44
东城区,东莞市,CN,113.78,23.04
1-2  Akutagawacho,Takatsuki,JP,135.62,34.85
二七区,郑州市,CN,113.64,34.72
"No 49, Sec 1, Zhongxiao W Rd",Taipei City,TW,121.52,25.05
"1159-10 , Sang-dong, Mokpo-si",Jeonlanamdo,KR,126.27,34.47
2670 152nd St,Surrey,CA,-122.8,49.05
铁西区,沈阳市,CN,123.36,41.78
면온1리 1095 센터플라자 2층,강원도,KR,128.33,37.58
"999, Passenger terminal, 4th floor",Bangphi,TH,100.75,13.69
1-9-1 Marunouchi,Chiyoda-ku,JP,139.77,35.68
"Krasnaya Street, 68",Krasnodar,RU,38.97,45.03
Landside Arrivals,Paisley,GB,-4.43,55.86
223 North Service Rd West,Oakville,CA,-79.7,43.45
Jl. Alam Sutera Boulevard,Tangerang,ID,106.66,-6.26
"Metallurgov Street, 87",Ekaterinburg,RU,60.5,56.82
石岐区,中山市,CN,113.37,22.52
5954 Hwy 7,Markham,CA,-79.26,43.87
813-1 Kamiseido,Chatan-cho,JP,127.77,26.33
"38, Irrawaddy Road #01-14",Singapore,SG,103.84,1.32
930 Yishun Ave 2 #01-07/08,Singapore,SG,103.84,1.43
17004-100th Avenue W,Edmonton,CA,-113.62,53.54
#24 Matalino St,Quezon City,PH,121.05,14.65
锦江区,成都市,CN,104.07,30.66
"153-8 Oncheon-dong, Dongrae-gu",Busan,KR,129.09,35.22
765 Yonge Street,Toronto,CA,-79.39,43.67
"2222-3, Daewhadong, Ilsanseogu, Goyangsi",Goyang,KR,126.43,37.45
Ovacik Mah. Yozgat Bulv. Forum Ankara,Ankara,TR,32.82,40.02
新区,无锡市,CN,120.38,31.53
North Luzon Expressway,Balagtas,PH,120.91,14.83
630 Nishikicho Omiya-ku,Saitama,JP,139.62,35.91
15-25 DON QUICHOTTE BOULEVARD,ILE PERROT,CA,-73.96,45.39
"255-11 Bujeon-dong, Jin-gu, Busan",Busan,KR,129.33,35.92
Sharjah Buheira Corniche,Sharjah,AE,55.38,25.33
Helsinki-Vantaa Airport Terminal 2,Vantaa,FI,24.97,60.32
2-5-1 Atago,Minato-ku,JP,139.75,35.66
南长区,无锡市,CN,120.31,31.56
Blvd. Miguel de la Madrid No. 8714,Manzanillo,MX,-104.33,19.1
4-263-1 Kishikicho Omiya-ku,Saitama,JP,139.63,35.9
南海区,佛山市,CN,113.14,23.03
176-2,서울,KR,126.95,37.54
青秀区,南宁市,CN,108.37,22.83
Unit 1 G/F Bldg B,Antipolo City,PH,121.17,14.59
JL Sukajadi No 137-139,Bandung,ID,107.6,-6.88
2600-2929 Barnet Highway,Coquitlam,CA,-122.8,49.28
1860 Appleby Line,Burlington,CA,-79.79,43.39
解放东路228号,无锡市,CN,119.84,31.36
上海市浦东新区,上海市,CN,121.49,31.15
Yahya Kaptan Mahallesi Akasyalar Caddesi,Kocaeli,TR,29.98,40.77
3724 Boul Taschereau,Montreal,CA,-73.47,45.49
3-1-1 Sakai,Ichinomiya,JP,136.8,35.3
500 Ranch Market,Strathmore,CA,-113.39,51.04
"559-5, Beomeo-Dong, Suseong-Gu",Daegu,KR,128.62,35.86
62 Uxbridge Road,London,GB,-0.22,51.5
Unit 117/117a Dun Laoghaire SC,Dublin,IE,-6.14,53.29
Grantham Station,Grantham,GB,-0.64,52.91
Paz Mendoza Guanzon St,Manila,PH,121,14.59
"Lot 2605 Jalan Pantai Cenang, Mukim Keda",Langkawi,MY,99.73,6.29
47 Rideau Street,Ottawa,CA,-75.69,45.43
11216 8th St,Dawson Creek,CA,-120.22,55.75
2685 E 49th Avenue,Vancouver,CA,-123.05,49.23
顺德,佛山市,CN,113.29,22.79
Avenue de la Patria,Guadalajara,MX,-103.42,20.66
985 Fir Street,Sherwood Park,CA,-113.32,53.51
"999, Passenger terminal, 3rd Floor",Bangphi,TH,100.75,13.69
Frankrijkstraat & Fonsnylaan,Brussels,BE,4.33,50.83
定海区,舟山市,CN,122.1,30.02
2362 Whatcom Road,Abbotsford,CA,-122.22,49.04
2-3-5 Usuki,Kagoshima,JP,130.54,31.54
Prol Division del Nte 4344,Mexico City,MX,-99.13,19.3
650 West 41st Avenue,Vancouver,CA,-123.12,49.23
Bangunan Jabatan Peguan Negara AGC,Putrajaya,MY,101.71,2.94
Arndale Centre,Manchester,GB,-2.24,53.48
"L3-19AP, Level 3, The Mines",Seri Kembangan,MY,101.72,03.03
深南大道深圳联通大厦首层,深圳市,CN,114.05,22.54
江苏省南通市,南通市,CN,120.87,32.02
Ajran Hasan Al Ajran St.,Abu Halifa,KW,48.12,29.14
122-2 imdang Dong,Gangneung,KR,128.9,37.73
张店区,淄博市,CN,118.06,36.8
思明区,厦门市,CN,118.08,24.45
伍家岗区,宜昌市,CN,111.31,30.68
شارع احمد الجابر,مدينة الكويت,KW,47.97,29.37
1422-35. Sillim 5(o)-dong Gwanak-gu,Seoul,KR,126.75,37.33
Diagonal 640,Barcelona,ES,2.14,41.39
江苏省无锡市滨湖区,无锡市,CN,120.31,31.49
Blvd. Harold Rio Pape,Monclova,MX,-101.42,26.93
"23 & 23-1, Yoido-Dong, Yongdongpo-Gu",Seoul,KR,,
浦东新区,上海市,CN,121.63,31.26
"No. 789, Zhonghua 5th Road",Kaohsiung City,TW,120.3,22.61
"No. 33, Tianmu W Rd,  Shilin District",Taipei City,TW,121.53,25.12
朝阳区,北京市,CN,116.46,39.93
杨浦区,上海市,CN,121.51,31.31
"Sherwood Forest, Village Square",Newark,GB,-1.01,53.21
1400 Munadaka-machi,Takasaki,JP,139.01,36.39
南开区,天津市,CN,117.19,39.14
Village Hotels Starbucks,Glasgow,GB,-4.34,55.82
"No.11, Sec. 4, Zhongyang Rd.",Hualien County,TW,121.6,24
Autoroute E25,Berchem,LU,6.12,49.54
"Carretera Cancun-Chetumal, Km 22",Cancun,MX,-86.87,21.04
Ali Cetinkaya Bulv. Ulku,Izmir,TR,27.14,38.43
Travesia Jardines Reales 7,Zargoza,ES,-0.89,41.61
Guzelyali Mah.Kenan Evren Bulv.,Adana,TR,35.3,37.05
Av Prolongacion Paseo Tabasco,Villahermosa,MX,-92.94,18
Bridgelink Cafe,Cardiff,GB,-3.18,51.48
上海市松江区,上海市,CN,121.2,31.03
天府新区,成都市,CN,104.06,30.52
浦东新区,上海市,CN,121.5,31.24
Akse Mah. Sehit Ilhan Kucuksolak,Kocaeli,TR,29.41,40.84
159-3 Jeongja-dong,Seongnam,KR,127.11,37.37
吴中区,苏州市,CN,120.63,31.27
Periferico Luis Echeverria #1416,Saltillo,MX,-100.98,25.44
3-4-30 Miyahara Yodogawa-ku,Osaka,JP,135.5,34.73
Jumeirah Beach Road,Dubai,AE,55.14,25.08
Av. Proceres esq. Con Tomas Marsano,Lima,PE,-76.99,-12.15
江苏省苏州市,苏州市,CN,120.85,31.03
Arenal 14,Madrid,ES,-3.71,40.42
201 Main Street,Whitehorse,CA,-135.05,60.72
城厢镇南郊海运堤路86-4号,太仓市,CN,121.12,31.44
江城区,阳江市,CN,111.97,21.85
94 McLeod Avenue,Spruce Grove,CA,-113.91,53.54
JL Jend Sudirman Kav 58,Jakarta,ID,106.82,-6.21
شارع البلاجات,مدينة الكويت,KW,48.09,29.35
2305 Chem Rockland,Montreal,CA,-73.65,45.53
1181 Matsudo,Matsudo,JP,139.9,35.78
"1F., No.186, Jingmao 2nd Rd.",Taipei City,TW,121.62,25.06
"Av Chamisero 9790, Local 14",Santiago,CL,-70.66,-33.31
lzmir Karayolu 9. Km. Afium Outlet,Afyonkarahisar,TR,30.46,38.79
Montecitos No 38 N3 Local 03 Col Napoles,Mexico City,MX,-99.17,19.39
SENDLINGER STRASSE 27,MUENCHEN,DE,11.57,48.14
1-3 Saganakadai,Kizugawa,JP,135.79,34.73
西湖区,杭州市,CN,120.14,30.27
东湖新技术开发区,武汉市,CN,114.41,30.48
4-10-20 Haramachida,Machida,JP,139.45,35.54
395 St. Albert Rd,St Albert,CA,-113.63,53.64
"Sriwara Road, Wana Thong Lang",Bangkapi,TH,100.61,13.77
"1124, Guwol 1-dong, Namdong-gu",Incheon,KR,126.7,37.45
죽전동 1285 죽전 신세계백화점 4층,경기도,KR,127.11,37.32
3 Grosvenor Street,London,GB,-0.15,51.51
"1886-2, Bangok-dong,wonju-si",wonju-si,KR,127.98,37.32
虹口区,上海市,CN,121.5,31.26
西湖区,杭州市,CN,120.14,30.27
"No. 509, Sec. 2, Zhongyuan Road",Zhongli City,TW,121.23,25
2-5 Okinohama,Tokushima,JP,134.55,34.05
정자동 19-6,경기도,KR,127.11,37.37
江苏省南通市,南通市,CN,120.99,31.87
Blbd Teofilo Borunda #8681,Ciudad Juarez,MX,-106.41,31.69
"246-2, Pyeongnae-dong",Namyangju-si,KR,127.23,37.65
滨江区,杭州市,CN,120.21,30.21
朝阳区,北京市,CN,116.48,39.91
3-8 Nakakayabacho,Kakamigahara,JP,136.82,35.39
7355 Bayview Avenue,Thornhill,CA,-79.4,43.81
JL TB Simatupang Kav 17,Jakarta,ID,106.8,-6.29
Cnr The Mall and Camp Street,Southland,NZ,167.71,-45.41
上海市浦东新区,上海市,CN,121.66,31.14
禅城区,佛山市,CN,113.12,23.04
5  Ounodan Onoda Taihaku-ku,Taihaku-ku,JP,140.88,38.21
Jose Ma Castorena 320,Mexico City,MX,-99.29,19.36
826-26 Yeoksam-dong Gangnam-gu,Seoul,KR,127.03,37.5
43-9,서울,KR,126.98,37.57
福田区,深圳市,CN,114.05,22.54
شارع الخليج,مدينة الكويت,KW,48.07,29.34
Tverskaya 24/2,Moscow,RU,37.6,55.77
"Ricardo Lyon 172, Local 1, Providencia",Santiago,CL,-70.61,-33.42
"Abaya ave, 109",Almaty,KZ,76.91,43.24
طريق المطار,مدينة الكويت,KW,47.95,29.34
Limmatquai 144,Zurich,CH,8.54,47.38
锦江区,成都市,CN,104.08,30.65
"113, Dusan-dong, Suseong-gu",Daegu,KR,128.62,35.84
Ataturk Havalimani,Istanbul,TR,28.82,40.98
1-3-15 Aomi,Koto-ku,JP,139.78,35.63
秀洲区,嘉兴市,CN,120.71,30.76
曲江新区,西安市,CN,108.97,34.21
Braintree Freeport Village,Braintree,GB,0.57,51.87
1359 56th Street,Tsawwassen,CA,-123.07,49.02
北仑区,宁波市,CN,121.84,29.9
"Primorsky ave, 72",Saint Petersburg,RU,30.21,59.98
157-36 samsung,Seoul,KR,127.06,37.51
"464-5, Samsan-dong, Bupyeong-gu",Incheon,KR,126.73,37.51
江岸区,武汉市,CN,114.31,30.61
510-5,서울,KR,127.07,37.54
Mutiara Damansara,Petaling Jaya,MY,101.61,3.16
2 Orchard Turn,Singapore,SG,103.83,1.3
682 West Broadway,Vancouver,CA,-123.12,49.26
Zamenhofova 440,Praha,CZ,14.54,50.08
1-25-32 Takadanobaba,Shinjuku-ku,JP,139.71,35.71
长乐市,福州市,CN,119.5,25.96
Longleat Forest,Warminster,GB,-2.22,51.17
al. Grunwaldzka 472,Gdańsk,PL,18.57,54.4
Prolongación Agricultura PD Soledad,"San Cristobal Centro, EDO MEX",MX,-99.05,19.61
"Rodovia Helio Smidt, s/n, Terminal 2",Guarulhos,BR,-46.49,-23.43
Mahir lz Caddesi No 4,Istanbul,TR,29.09,41.02
1-12-2 Nihonbashikayabacho,Chuo-ku,JP,139.78,35.68
100 Centre Commercial,Lille,FR,03.07,50.64
钟楼区,常州市,CN,119.95,31.78
116-118 Canongate,Edinburgh,GB,-3.18,55.95
74/78 Finsbury Pavement,London,GB,-0.09,51.52
郑东新区,郑州市,CN,113.73,34.77
DIAGONAL A ESTADIO NACIONAL,SAN JOSE,CR,-84.11,9.94
34 Great Marlborough St,London,GB,-0.14,51.51
5-6-1 Kitashinagawa,Shinagawa-ku,JP,139.73,35.62
شارع المطار,مدينة الكويت,KW,47.97,29.24
"Jl. Raya Puncak, Simpang Gadog",Puncak,ID,106.87,-6.66
"146 Valero Street, Salcedo Village",Makati City,PH,121.02,14.56
江苏省苏州市,苏州市,CN,120.6,31.31
杭州市江干区,杭州市,CN,120.21,30.24
"986-1, geumchon-dong",Paju-si,KR,126.77,37.75
虹口区,上海市,CN,121.47,31.26
Jalan Sulaman,Kota Kinabalu,MY,116.13,06.04
1599 Boulevard Saint-Martin Ouest,Montreal,CA,-73.73,45.57
3211 Grant McConnachie Way,Richmond,CA,-123.18,49.19
顺义区,北京市,CN,116.59,40.08
"No. 26, Sec. 4, Roosevelt Rd.",Taipei City,TW,121.54,25.01
Av.Miguel Aleman No.625 Esq.Versalles,Gomez Palacio,MX,-103.5,25.55
兰山区,临沂市,CN,118.33,35.07
Kong University of Science & Technology,Hong Kong,CN,114.26,22.34
Balikesir Karayolu 10.Km.Festiva Outlet,Susurluk,TR,28.14,39.84
70 High Street,Teddington,GB,-0.33,51.43
工业园区,苏州市,CN,120.67,31.32
Houndmills Road,Basingstoke,GB,-1.11,51.27
西湖区,杭州市,CN,120.11,30.24
Blvd. Aeropuerto #10,Monterrey,MX,-100.13,25.79
秀洲区,嘉兴市,CN,120.67,30.62
Rue St. Laurent 19,Lausanne,CH,6.63,46.52
"29, Rue du Faubourg Saint Antoine",Paris,FR,2.37,48.85
2000 Airport Rd NE,Calgary,CA,-114.01,51.13
International Terminal 2 Departures,Jakarta,ID,106.65,-6.12
"2-1, Beomeo 3-dong, Suseong-gu, Daegu",Daegu,KR,128.63,35.87
Cours de Rive 11,Geneve,CH,6.15,46.2
"Dalma Mall, Mussafah",Abu Dhabi,AE,54.49,24.4
2-6 Granville Rd,Kowloon,CN,114.17,22.3
JL Jend Sudirman-Pintu 1 Senayan,Jakarta Selatan,ID,106.8,-6.23
包河区,合肥市,CN,117.29,31.74
越秀区,广州市,CN,113.3,23.13
东城区,北京市,CN,116.41,39.92
Market Street,Henley-on-Thames,GB,-0.9,51.54
138/139 Peascod Street,Windsor,GB,-0.61,51.48
Jalan Jendral Sudirman No.47 Stal Kuda,Balikpapan,ID,116.88,-1.16
353 Albert St North,Regina,CA,-104.62,50.48
galwaldong,Seoul,KR,126.97,37.54
101 114 Sierra Springs Drive,Airdrie,CA,-114,51.27
Pedregal #24,Mexico,MX,-99.2,19.33
"No 34, Taiyuan St",Hsinchu City,TW,121.02,24.82
姜堰市,姜堰市,CN,120.15,32.51
7333 Woodbine Avenue,Markham,CA,-79.35,43.82
